,id,name,address,pname,pcode,cityname,citycode,adname,adcode,tel,type,photos,timestamp,lon_gcj02,lat_gcj02,lon_wgs84,lat_wgs84,大类,中类,小类
0,B0ID05J4C7,小精灵亲子游乐园,圣和路15号,山东省,370000,济宁市,537,泗水县,370831,13356683232,体育休闲服务;休闲场所;游乐场,"[{'title': [], 'url': 'http://store.is.autonavi.com/showpic/f5229660d9765c568ebe380e52baa09c'}, {'title': [], 'url': 'http://store.is.autonavi.com/showpic/df74e79c461e2df3c9615b8f85308019'}]",2022-09-02T06:22:33,117.210318,35.642372,117.2044362159804,35.64244507664951,体育休闲服务,休闲场所,游乐场
1,B0ID9R3MQ3,天海飞行微山湖跳伞基地,微山岛镇波浪湾,山东省,370000,济宁市,537,微山县,370826,13269085366,体育休闲服务;体育休闲服务场所;体育休闲服务场所,[],2022-09-02T06:19:37,117.24421,34.644622,117.23845261913036,34.64566531798115,体育休闲服务,体育休闲服务场所,体育休闲服务场所
2,B0GUJ6MZLS,棋牌休闲奶茶桌游,英华北路琵琶山-北区,山东省,370000,济宁市,537,任城区,370811,[],体育休闲服务;娱乐场所;娱乐场所,"[{'title': [], 'url': 'http://store.is.autonavi.com/showpic/4c70ec5eb384fbea4434f9f1dad17f7d'}]",2022-09-02T05:36:14,116.609718,35.41157,116.6044211822915,35.412019986791194,体育休闲服务,娱乐场所,娱乐场所
3,B0IDTZK77T,青岛啤酒鲜酒吧,谭岗路与荷花路交叉口西200米,山东省,370000,济宁市,537,任城区,370811,[],体育休闲服务;娱乐场所;酒吧,[],2022-09-02T05:11:03,116.581079,35.374424,116.57578885530944,35.37490255283336,体育休闲服务,娱乐场所,酒吧
4,B0ID7X9CRR,明馥百悦瑜伽,金宇路59号新贵和2楼,山东省,370000,济宁市,537,任城区,370811,[],体育休闲服务;运动场馆;健身中心,[],2022-09-01T20:59:06,116.604076,35.431564,116.59878130227877,35.432000050721975,体育休闲服务,运动场馆,健身中心
5,B0ID3AISAO,酷锐体育运动成长中心,慧农商城B座西南门2楼,山东省,370000,济宁市,537,嘉祥县,370829,13562439559;18266872886,体育休闲服务;运动场馆;篮球场馆,"[{'title': [], 'url': 'http://store.is.autonavi.com/showpic/fbc2a857f432feebb3b7065ce0517fa3'}, {'title': [], 'url': 'http://store.is.autonavi.com/showpic/d9a2417a1d386dd45cd67d95f731b175'}, {'title': [], 'url': 'http://store.is.autonavi.com/showpic/82ef2a43a67273432e0177b6295e14e0'}]",2022-09-01T18:46:28,116.334122,35.423454,116.32848807411294,35.42361183138443,体育休闲服务,运动场馆,篮球场馆
6,B0IDXAJLOB,见录手作馆,圣都商业街17-2,山东省,370000,济宁市,537,金乡县,370828,15206748345,体育休闲服务;休闲场所;休闲场所,"[{'title': [], 'url': 'http://store.is.autonavi.com/showpic/14039c9b4176c4a0572ac4d1afeea43e'}, {'title': [], 'url': 'http://store.is.autonavi.com/showpic/9a407f150bdc685fd669e4b213b48f0c'}, {'title': [], 'url': 'http://store.is.autonavi.com/showpic/ecae86981b7af6bda8e1f4d2ae0d2797'}]",2022-09-01T18:11:49,116.315858,35.069214,116.31029948362723,35.06975686137656,体育休闲服务,休闲场所,休闲场所
7,B0IDCANCSF,探探熊动物王国,山东省济宁市邹城市东滩路1869号邹城银座A区三楼西首,山东省,370000,济宁市,537,邹城市,370883,15063789666,体育休闲服务;体育休闲服务场所;体育休闲服务场所,[],2022-09-01T18:11:23,116.971111,35.407822,116.96552498678663,35.408170230802334,体育休闲服务,体育休闲服务场所,体育休闲服务场所
8,B0FFGH1Z3B,友趣天空,沃尔玛二楼,山东省,370000,济宁市,537,任城区,370811,0537-3160166,体育休闲服务;休闲场所;游乐场,"[{'title': [], 'url': 'http://store.is.autonavi.com/showpic/bae7b49d3d643ec645492d5a0c261e94'}]",2022-09-01T14:28:10,116.579293,35.403617,116.57399859952346,35.40406933509306,体育休闲服务,休闲场所,游乐场
9,B0FFK8TAI6,乐高创意活动中心(兖州奎星苑店),机神庙街兖州东御桥小学(百子堂校区)东南侧约120米,山东省,370000,济宁市,537,兖州区,370812,0537-3330055,体育休闲服务;体育休闲服务场所;体育休闲服务场所,"[{'title': [], 'url': 'http://store.is.autonavi.com/showpic/37dc1c4ec0d235ca1eaa2628361b4956'}]",2022-09-01T13:31:42,116.836388,35.543422,116.83089583634784,35.54369828382478,体育休闲服务,体育休闲服务场所,体育休闲服务场所
10,B0GU4AT08G,天池小圆塘,八里庙大桥西第二个红绿灯往北,山东省,370000,济宁市,537,任城区,370811,[],体育休闲服务;休闲场所;垂钓园,"[{'title': [], 'url': 'http://store.is.autonavi.com/showpic/a2a8d0edbaadd86749d3c758104a9025'}, {'title': [], 'url': 'http://store.is.autonavi.com/showpic/db242b346423d4b3d411088e05d52bd9'}, {'title': [], 'url': 'http://store.is.autonavi.com/showpic/9424d4819b8a3aa8661bbc81572d43ef'}]",2022-09-01T13:08:14,116.547056,35.381411,116.54171029263556,35.38183364747985,体育休闲服务,休闲场所,垂钓园
11,B0H2N9KEJV,西刘农家院,洸河路开泰花园小区南侧约40米,山东省,370000,济宁市,537,任城区,370811,[],体育休闲服务;休闲场所;休闲场所,"[{'title': [], 'url': 'http://store.is.autonavi.com/showpic/006cbcb31ad12e42ff705cae3ba7c9a4'}]",2022-09-01T12:53:20,116.553967,35.419849,116.54863332064932,35.420253407580645,体育休闲服务,休闲场所,休闲场所
12,B0IG2M3QRH,游侠台球俱乐部,兴唐大厦,山东省,370000,济宁市,537,任城区,370811,[],体育休闲服务;运动场馆;台球厅,[],2022-09-01T11:13:02,116.595614,35.420942,116.5903233618537,35.42138744148291,体育休闲服务,运动场馆,台球厅
13,B0FFL4RAHZ,E时代动漫城,古城街61号乐民商厦,山东省,370000,济宁市,537,嘉祥县,370829,[],体育休闲服务;娱乐场所;游戏厅,[],2022-09-01T11:05:02,116.346781,35.399663,116.34112305126588,35.39981695286902,体育休闲服务,娱乐场所,游戏厅
14,B0GK0SAGQC,网鱼网咖(皇朝店),济州上城负一层,山东省,370000,济宁市,537,任城区,370811,15254798021,体育休闲服务;娱乐场所;网吧,"[{'title': [], 'url': 'http://store.is.autonavi.com/showpic/54665e1da63eb0bfbdcec9e3ae991ae3'}, {'title': [], 'url': 'http://store.is.autonavi.com/showpic/9b5a746ab1565ddec420c4f5ec01cf0b'}, {'title': [], 'url': 'http://store.is.autonavi.com/showpic/574b758c8209f04e15ee52f17406591b'}]",2022-09-01T11:02:20,116.61979,35.396325,116.6144833754898,35.39678047985639,体育休闲服务,娱乐场所,网吧
15,B0FFGP91CB,气艺跆拳道,安居镇居北桥北20米路西,山东省,370000,济宁市,537,任城区,370811,18253748898,体育休闲服务;运动场馆;跆拳道场馆,[],2022-09-01T06:54:02,116.496166,35.372165,116.49065742557175,35.37245685311001,体育休闲服务,运动场馆,跆拳道场馆
16,B0IU6USZP5,醉慕lIVEHOUSE,运河摩尔5楼,山东省,370000,济宁市,537,任城区,370811,[],体育休闲服务;娱乐场所;酒吧,"[{'title': [], 'url': 'http://store.is.autonavi.com/showpic/4b8238674e9a4b4a87bf19e416681b4b'}, {'title': [], 'url': 'http://store.is.autonavi.com/showpic/23e6d6ece54ae3aa5e81bfd638816868'}]",2022-09-01T02:49:34,116.5903,35.407594,116.58501055705308,35.408049299742075,体育休闲服务,娱乐场所,酒吧
17,B0IU6ZDMK9,安知手工坊,阜桥街道刘庄西新村89号1-2层,山东省,370000,济宁市,537,任城区,370811,15069710773,体育休闲服务;体育休闲服务场所;体育休闲服务场所,[],2022-09-01T02:49:26,116.599853,35.414926,116.59456195216836,35.41537630536452,体育休闲服务,体育休闲服务场所,体育休闲服务场所
18,B0IU6UQP9F,Um·有米DIY手工制作,王杰中学对过胡同内最南头左拐路南第一家,山东省,370000,济宁市,537,金乡县,370828,13255478782,体育休闲服务;休闲场所;休闲场所,"[{'title': [], 'url': 'http://store.is.autonavi.com/showpic/9e64b71136b5ec3602efdc10572b3368'}, {'title': [], 'url': 'http://store.is.autonavi.com/showpic/373fd9e6d55294d4eec4471b262ca52c'}, {'title': [], 'url': 'http://store.is.autonavi.com/showpic/4b139135a7850b531c70a843ffcdeb9d'}]",2022-09-01T02:49:23,116.317315,35.062634,116.3117541444712,35.06318145580963,体育休闲服务,休闲场所,休闲场所
19,B0IU65QOJB,果香生态园,大安镇后白家楼村,山东省,370000,济宁市,537,兖州区,370812,[],体育休闲服务;体育休闲服务场所;体育休闲服务场所,[],2022-09-01T02:49:14,116.844129,35.636471,116.8386405067532,35.636706496177126,体育休闲服务,体育休闲服务场所,体育休闲服务场所
20,B0IDYZUYE8,东青少年王篮球馆,红玺台小区西广伟路广伟南厂房,山东省,370000,济宁市,537,任城区,370811,17888373333,体育休闲服务;运动场馆;篮球场馆,[],2022-08-31T23:10:55,116.617381,35.389576,116.61207820658898,35.39003926099343,体育休闲服务,运动场馆,篮球场馆
21,B0IDXC0Q20,火神篮球训练基地,凫山街道宏河路1553号门头,山东省,370000,济宁市,537,邹城市,370883,[],体育休闲服务;运动场馆;篮球场馆,"[{'title': [], 'url': 'http://store.is.autonavi.com/showpic/eb07cd6d58f515e5053dfff09e62b69c'}, {'title': [], 'url': 'http://store.is.autonavi.com/showpic/193b05bcd81e6091379a823378252e25'}, {'title': [], 'url': 'http://store.is.autonavi.com/showpic/43528ee28c41b2baff5440180bb34941'}]",2022-08-31T16:27:48,116.933759,35.397543,116.9282919291652,35.39797912969849,体育休闲服务,运动场馆,篮球场馆
22,B0ID79YSON,聚点台球厅,中国石化济宁微山第20加油站西侧120米,山东省,370000,济宁市,537,微山县,370826,[],体育休闲服务;运动场馆;台球厅,[],2022-08-31T10:24:17,116.942967,35.016886,116.93751548072376,35.017694788434696,体育休闲服务,运动场馆,台球厅
23,B0ID1Z82A4,漫拾光DIY创意坊,百丰大厦515室,山东省,370000,济宁市,537,任城区,370811,13275472190,体育休闲服务;休闲场所;休闲场所,"[{'title': [], 'url': 'http://store.is.autonavi.com/showpic/03a8906feda32dc73ab2ab1c452e52d4'}, {'title': [], 'url': 'http://store.is.autonavi.com/showpic/737534603e11cf0c879fdbc301d8b97a'}]",2022-08-31T05:20:22,116.605208,35.429747,116.59991279058644,35.43018415453403,体育休闲服务,休闲场所,休闲场所
24,B0G22GRCZ1,田丰果园,南阳湖农场南门,山东省,370000,济宁市,537,任城区,370811,19953720359,体育休闲服务;体育休闲服务场所;体育休闲服务场所,[],2022-08-31T04:32:23,116.646833,35.295195,116.64148520352984,35.29570574638343,体育休闲服务,体育休闲服务场所,体育休闲服务场所
25,B0FFJV2YCW,摆渡人酒吧(万达广场济宁太白路店),太白东路55号万达广场(济宁太白路店)1F层,山东省,370000,济宁市,537,任城区,370811,[],体育休闲服务;娱乐场所;酒吧,[],2022-08-30T18:34:01,116.603491,35.408897,116.5981989055804,35.40935160822205,体育休闲服务,娱乐场所,酒吧
26,B0ID35Y4S7,峄康源,山东省济宁市邹城市峄山街470号路南468米路东88,山东省,370000,济宁市,537,邹城市,370883,13805470263,体育休闲服务;体育休闲服务场所;体育休闲服务场所,[],2022-08-30T17:57:37,117.054601,35.315544,117.04869821306168,35.31574482165148,体育休闲服务,体育休闲服务场所,体育休闲服务场所
27,B0IDSZEY7N,鲁味轩农家院,滨湖路与车站西路交汇处向南880米路东,山东省,370000,济宁市,537,任城区,370811,15666177688,体育休闲服务;休闲场所;休闲场所,"[{'title': [], 'url': 'http://store.is.autonavi.com/showpic/f7b447b8caa2dcc0e0298c471e5a3f8c'}, {'title': [], 'url': 'http://store.is.autonavi.com/showpic/a3d6967cfff701986bf808e5e2826476'}, {'title': [], 'url': 'https://comment-oss-online.oss-cn-wulanchabu.aliyuncs.com/B0IDSZEY7N/comment/content_media_external_images_media_12262_1652324833619_5891b838.jpg'}]",2022-08-30T15:32:40,116.563469,35.369524,116.55815847231122,35.36998698868825,体育休闲服务,休闲场所,休闲场所
28,B0ID375PVS,吹牛脾俱乐部,凤凰城鲁汾酒业左侧门地下一层,山东省,370000,济宁市,537,梁山县,370832,15589708141,体育休闲服务;体育休闲服务场所;体育休闲服务场所,[],2022-08-30T15:19:02,116.080271,35.801757,116.07443022328522,35.801633114711834,体育休闲服务,体育休闲服务场所,体育休闲服务场所
29,B0H33YRGLW,浮生音乐餐吧,S337美的亚首府,山东省,370000,济宁市,537,梁山县,370832,[],体育休闲服务;娱乐场所;酒吧,[],2022-08-30T15:01:55,116.101369,35.766331,116.09553260434556,35.76621291269766,体育休闲服务,娱乐场所,酒吧
30,B0ID2ZEU79,正炫乒乓球,兖兰中街329号,山东省,370000,济宁市,537,嘉祥县,370829,13280498981,体育休闲服务;运动场馆;乒乓球馆,[],2022-08-30T14:51:37,116.344381,35.395433,116.33872837291764,35.395594818052686,体育休闲服务,运动场馆,乒乓球馆
31,B02190YH48,菲莲酒吧,南门大街三孔宾馆,山东省,370000,济宁市,537,曲阜市,370881,[],体育休闲服务;娱乐场所;酒吧,"[{'title': [], 'url': 'http://store.is.autonavi.com/showpic/4f69a157c40572b7c873d285aa1c6d94'}]",2022-08-30T14:43:24,116.994346,35.589737,116.98864534174535,35.589888831639044,体育休闲服务,娱乐场所,酒吧
32,B0IDC7IP7T,万克台球俱乐部,齐鲁时代花园一期北门三楼,山东省,370000,济宁市,537,邹城市,370883,15192425710,体育休闲服务;运动场馆;台球厅,[],2022-08-30T13:39:40,117.013351,35.414811,117.00758796191712,35.41502874702744,体育休闲服务,运动场馆,台球厅
33,B0IDYHVMGV,曲阜0511手工店,富良商城4号楼104号,山东省,370000,济宁市,537,曲阜市,370881,13355476559,体育休闲服务;休闲场所;休闲场所,"[{'title': [], 'url': 'http://store.is.autonavi.com/showpic/ecc52a14efb560b555c210432daf0d37'}, {'title': [], 'url': 'http://store.is.autonavi.com/showpic/0def428397b078dfa081d22b23ead1a6'}, {'title': [], 'url': 'http://store.is.autonavi.com/showpic/0d0014b5d7a5f5329497b02d45109193'}]",2022-08-30T12:58:15,117.000774,35.591819,116.99504558299763,35.591950096716566,体育休闲服务,休闲场所,休闲场所
34,B0IDRCO7QF,光辉岁月音乐主题酒馆,星吴线与星华路交叉口南220米,山东省,370000,济宁市,537,泗水县,370831,[],体育休闲服务;娱乐场所;酒吧,[],2022-08-30T12:46:17,117.40631,35.689753,117.40015992240112,35.68964271287263,体育休闲服务,娱乐场所,酒吧
35,B0FFIHL4RF,尚茗源茶庄,和欣家园10号楼1层13号,山东省,370000,济宁市,537,任城区,370811,0537-2208788;13905370058,体育休闲服务;娱乐场所;棋牌室,"[{'title': [], 'url': 'http://store.is.autonavi.com/showpic/3333aac5c252def0499dc7cead4883fb'}, {'title': [], 'url': 'http://store.is.autonavi.com/showpic/5974a077aca0874ce60da8e3c1e34b21'}, {'title': [], 'url': 'http://store.is.autonavi.com/showpic/62e7d579d4ee1320aabc4012c7571262'}]",2022-08-30T03:41:08,116.573852,35.399543,116.5685528394487,35.39999363128655,体育休闲服务,娱乐场所,棋牌室
36,B0IDVZUTQI,鲸禧手作手工工作室,万达广场B座1817室,山东省,370000,济宁市,537,任城区,370811,19353341183,体育休闲服务;休闲场所;休闲场所,"[{'title': [], 'url': 'http://store.is.autonavi.com/showpic/14dacedad6fc6b081f1d527014db0f76'}, {'title': [], 'url': 'http://store.is.autonavi.com/showpic/77867fa01054280057af27d9b8a6a25c'}, {'title': [], 'url': 'http://store.is.autonavi.com/showpic/3b8fcf9e9a633265dc25b5f4ed81465b'}]",2022-08-30T03:40:33,116.603768,35.408069,116.59847583369292,35.408524219552824,体育休闲服务,休闲场所,休闲场所
37,B0ID0LXX9G,新起点音乐会所,"凫山街道南开街4,5号",山东省,370000,济宁市,537,邹城市,370883,[],体育休闲服务;娱乐场所;娱乐场所,[],2022-08-30T02:25:02,116.965074,35.379862,116.95951366011565,35.38024970515489,体育休闲服务,娱乐场所,娱乐场所
38,B0IDF701PT,胡乐棋牌,建设南路,山东省,370000,济宁市,537,任城区,370811,[],体育休闲服务;娱乐场所;棋牌室,[],2022-08-29T06:18:15,116.597301,35.406098,116.59201156413712,35.40655569631663,体育休闲服务,娱乐场所,棋牌室
39,B0IDJC8H3L,时光台球俱乐部,天罡路郑垓路东,山东省,370000,济宁市,537,梁山县,370832,17564138988,体育休闲服务;运动场馆;台球厅,[],2022-08-29T02:40:15,116.122755,35.786434,116.11694041644088,35.78632053217498,体育休闲服务,运动场馆,台球厅
40,B0IDJZSCJV,金都搏冠乒乓球俱乐部,金兴商贸城A5-6号,山东省,370000,济宁市,537,金乡县,370828,19953711366,体育休闲服务;运动场馆;乒乓球馆,"[{'title': [], 'url': 'http://store.is.autonavi.com/showpic/093e05dc2bf826d05b4d8f943973399f'}]",2022-08-29T02:39:51,116.286985,35.072332,116.28147677351711,35.072918281908166,体育休闲服务,运动场馆,乒乓球馆
41,B0IDJMNETZ,GM.巨兽跳舞俱乐部,济州上城4F,山东省,370000,济宁市,537,任城区,370811,0537-5633555,体育休闲服务;娱乐场所;酒吧,"[{'title': [], 'url': 'http://store.is.autonavi.com/showpic/778544bc3c76a33517f4d029726c98ab'}, {'title': [], 'url': 'http://store.is.autonavi.com/showpic/27bd90685d5fbfb738d719ef83eb5d06'}, {'title': [], 'url': 'http://store.is.autonavi.com/showpic/71d2a3417231bf8843111fae28cf5ddd'}]",2022-08-29T02:39:49,116.61948,35.395739,116.61417385524273,35.39619525194518,体育休闲服务,娱乐场所,酒吧
42,B0IDJCB8JW,一只小白工艺品坊,荷香路卫生室对过巷子约100m,山东省,370000,济宁市,537,金乡县,370828,19153100127,体育休闲服务;休闲场所;休闲场所,"[{'title': [], 'url': 'http://store.is.autonavi.com/showpic/5eaa90dfa58e2cc778e53182f86ababf'}, {'title': [], 'url': 'http://store.is.autonavi.com/showpic/bf384bffcb9ae53476b7990b5795f836'}, {'title': [], 'url': 'http://store.is.autonavi.com/showpic/baa7c534704349862165fb79a854bf4c'}]",2022-08-29T02:39:38,116.307696,35.068637,116.30215382665548,35.069195287106844,体育休闲服务,休闲场所,休闲场所
43,B0FFHI1UHD,沐喜手工礼物DIY创意坊,运河城京杭中心A座907室,山东省,370000,济宁市,537,任城区,370811,17686832584;18588961325,体育休闲服务;休闲场所;休闲场所,"[{'title': [], 'url': 'http://store.is.autonavi.com/showpic/61bb21362ded6fbd1ddc9ffa154b4bbb'}, {'title': [], 'url': 'http://store.is.autonavi.com/showpic/0829a62099141d15005edc46bad31000'}, {'title': [], 'url': 'http://store.is.autonavi.com/showpic/5a8c1b7daea1e0f313ee442901120398'}]",2022-08-28T18:32:59,116.590315,35.407793,116.58502553975973,35.40824813988384,体育休闲服务,休闲场所,休闲场所
44,B0ID3AJZ6D,VIMI CLUB维密酒吧,洸河路58号,山东省,370000,济宁市,537,任城区,370811,[],体育休闲服务;娱乐场所;酒吧,[],2022-08-28T05:33:41,116.609288,35.419919,116.6039907177066,35.42036238058565,体育休闲服务,娱乐场所,酒吧
45,B0HK9ZZI97,学能俱乐部,青州路与建设中路交叉口东南约240米,山东省,370000,济宁市,537,兖州区,370812,[],体育休闲服务;体育休闲服务场所;体育休闲服务场所,[],2022-08-28T05:31:50,116.79313,35.554139,116.78756514859202,35.55433257345951,体育休闲服务,体育休闲服务场所,体育休闲服务场所
46,B0FFIAA7IU,宋家沟草上采摘园,宋家沟草莓采摘园东南侧90米,山东省,370000,济宁市,537,泗水县,370831,0537-4387233,体育休闲服务;体育休闲服务场所;体育休闲服务场所,[],2022-08-28T04:41:32,117.385532,35.548283,117.37940946291349,35.548256777157526,体育休闲服务,体育休闲服务场所,体育休闲服务场所
47,B0ID376H04,半日闲棋牌娱乐馆,浙江商城B3甲09森哥集成灶2楼,山东省,370000,济宁市,537,梁山县,370832,15553722181,体育休闲服务;娱乐场所;棋牌室,"[{'title': [], 'url': 'http://store.is.autonavi.com/showpic/6996e971d60d6e73e4f1fc0f6558bd1e'}, {'title': [], 'url': 'http://store.is.autonavi.com/showpic/64080cc181263b835efd0a40c7cf65a2'}, {'title': [], 'url': 'http://store.is.autonavi.com/showpic/d599effabda89a7029110eadb47b92cf'}]",2022-08-28T04:03:08,116.080778,35.777043,116.07493961045655,35.77692759427848,体育休闲服务,娱乐场所,棋牌室
48,B0ID3AI27E,佑彤生态园,[],山东省,370000,济宁市,537,任城区,370811,15092635676,体育休闲服务;休闲场所;休闲场所,"[{'title': [], 'url': 'http://store.is.autonavi.com/showpic/da16630072a542fdeefd84c2fe7f0de2'}, {'title': [], 'url': 'http://store.is.autonavi.com/showpic/f75fa6c49535c1c155156d152abd8f12'}]",2022-08-28T04:03:01,116.60093,35.500661,116.59562993511943,35.50104573639708,体育休闲服务,休闲场所,休闲场所
49,B0IDTSMW8J,梨澜庭采摘园,张黄镇古城集村陈庄西88米,山东省,370000,济宁市,537,鱼台县,370827,[],体育休闲服务;休闲场所;采摘园,[],2022-08-27T03:57:34,116.629585,35.080707,116.6242944350546,35.08146724069424,体育休闲服务,休闲场所,采摘园
50,B0IUY5WKXC,漫吧,110县道与321省道交叉口北60米,山东省,370000,济宁市,537,梁山县,370832,[],体育休闲服务;娱乐场所;网吧,[],2022-08-27T03:57:08,116.015535,35.8183,116.00982553522272,35.81830334686064,体育休闲服务,娱乐场所,网吧
51,B0I6A7AIL1,科蒂俱乐部,任城万达商场二层,山东省,370000,济宁市,537,任城区,370811,[],体育休闲服务;体育休闲服务场所;体育休闲服务场所,[],2022-08-26T05:39:31,116.603844,35.408283,116.598551769065,35.40873802198018,体育休闲服务,体育休闲服务场所,体育休闲服务场所
52,B0IAGS56CY,卓友台球,中御桥北路与建设东路交叉口南140米,山东省,370000,济宁市,537,兖州区,370812,[],体育休闲服务;运动场馆;台球厅,[],2022-08-26T04:06:58,116.827698,35.554152,116.82218921177017,35.55440512033561,体育休闲服务,运动场馆,台球厅
53,B0IDFCWH8N,儿童动漫城堡,钢山街道崇义路3367号鑫琦乐购超市三楼西南角角,山东省,370000,济宁市,537,邹城市,370883,13792377707,体育休闲服务;休闲场所;游乐场,"[{'title': [], 'url': 'http://store.is.autonavi.com/showpic/3db51fe02341a8138e0b71d98fb23a3d'}, {'title': [], 'url': 'http://store.is.autonavi.com/showpic/4949574b1e94350e79b00a53dddc2323'}, {'title': [], 'url': 'http://store.is.autonavi.com/showpic/252d72234638b9c806ac3c5897683a2d'}]",2022-08-26T04:00:46,117.017734,35.418562,117.01195234952064,35.41876380593709,体育休闲服务,休闲场所,游乐场
54,B0IDFUU8UJ,云渡台球club,讯达路90号,山东省,370000,济宁市,537,汶上县,370830,[],体育休闲服务;运动场馆;台球厅,"[{'title': [], 'url': 'http://store.is.autonavi.com/showpic/6cd447e5c8d6eccc90cf849732b707f8'}]",2022-08-26T04:00:29,116.393238,35.784227,116.38747736490072,35.78409811202093,体育休闲服务,运动场馆,台球厅
55,B0IDFCX45R,3号娱乐,公明大道水浒商贸城对过26号,山东省,370000,济宁市,537,梁山县,370832,15964757576,体育休闲服务;娱乐场所;娱乐场所,"[{'title': [], 'url': 'http://store.is.autonavi.com/showpic/31e7941dfc235f8c08e60846f781e886'}]",2022-08-26T04:00:12,116.085692,35.812014,116.07984795545032,35.81188285754108,体育休闲服务,娱乐场所,娱乐场所
56,B0IDFDGHAS,渔禾农家院,新兖镇朝阳村西88米,山东省,370000,济宁市,537,兖州区,370812,15318186825,体育休闲服务;休闲场所;休闲场所,[],2022-08-26T03:59:59,116.773247,35.567991,116.76766205744195,35.56815314599956,体育休闲服务,休闲场所,休闲场所
57,B0IDCDYV8R,蓝鲨网络,鱼新一路与湖陵二路交叉口东南80米,山东省,370000,济宁市,537,鱼台县,370827,[],体育休闲服务;娱乐场所;网吧,[],2022-08-26T02:05:17,116.651533,34.998589,116.64620365127158,34.999407474248464,体育休闲服务,娱乐场所,网吧
58,B0FFKV3M1O,九隐音乐酒吧,财富大厦负一楼,山东省,370000,济宁市,537,邹城市,370883,15206734561,体育休闲服务;娱乐场所;酒吧,"[{'title': [], 'url': 'http://store.is.autonavi.com/showpic/30af309f61062979bbeec0944cd9bea8'}, {'title': [], 'url': 'http://store.is.autonavi.com/showpic/8163de613a2a0bd4960f2eb3a4178742'}, {'title': [], 'url': 'http://store.is.autonavi.com/showpic/96fd035f96d65cd88c21e76e662ab358'}]",2022-08-25T02:57:34,116.96817,35.407869,116.96259521456166,35.40822502705112,体育休闲服务,娱乐场所,酒吧
59,B0FFK66Q5F,悦瑜伽,济邹路与火炬路交叉路口津多里商场,山东省,370000,济宁市,537,任城区,370811,[],体育休闲服务;运动场馆;健身中心,[],2022-08-24T12:42:27,116.616598,35.397269,116.61129540200938,35.397726385872275,体育休闲服务,运动场馆,健身中心
60,B0FFHT5NL8,兖州花卉农家院,兴隆大道与246省道交叉口东280米,山东省,370000,济宁市,537,兖州区,370812,[],体育休闲服务;体育休闲服务场所;体育休闲服务场所,[],2022-08-24T12:41:00,116.84906,35.513023,116.84359223935527,35.51334236107143,体育休闲服务,体育休闲服务场所,体育休闲服务场所
61,B0H33GRFOF,儒洱采耳,程兰路1146号(东城新百货大楼对面三楼),山东省,370000,济宁市,537,邹城市,370883,18653735325,体育休闲服务;体育休闲服务场所;体育休闲服务场所,"[{'title': [], 'url': 'http://store.is.autonavi.com/showpic/7dc51ee7cb09a5359c2c21ea24c22c91'}]",2022-08-24T03:17:38,117.01594,35.414888,117.0101661590976,35.41509804700267,体育休闲服务,体育休闲服务场所,体育休闲服务场所
62,B0IDXSLF8P,国强樱桃园,看庄镇金山村,山东省,370000,济宁市,537,邹城市,370883,[],体育休闲服务;休闲场所;采摘园,[],2022-08-24T02:19:48,117.076785,35.262957,117.07083654406104,35.26317645016708,体育休闲服务,休闲场所,采摘园
63,B0HRHP0J96,义和佳苑-老年公寓,义和路义和佳苑,山东省,370000,济宁市,537,邹城市,370883,[],体育休闲服务;度假疗养场所;疗养院,[],2022-08-23T21:59:53,117.001117,35.418888,116.99540547548798,35.41913926761811,体育休闲服务,度假疗养场所,疗养院
64,B0IDR13BS4,兖州区滨河观光采摘园,酒仙桥街道河头村,山东省,370000,济宁市,537,曲阜市,370881,15153787499,体育休闲服务;休闲场所;采摘园,"[{'title': [], 'url': 'https://comment-oss-online.oss-cn-wulanchabu.aliyuncs.com/B0IDR13BS4/comment/content_media_external_images_media_25272_1653031496337_d6bbe018.jpg'}, {'title': [], 'url': 'https://comment-oss-online.oss-cn-wulanchabu.aliyuncs.com/B0IDR13BS4/comment/content_media_external_images_media_25270_1653031496337_880eba98.jpg'}, {'title': [], 'url': 'https://comment-oss-online.oss-cn-wulanchabu.aliyuncs.com/B0IDR13BS4/comment/content_media_external_images_media_25271_1653031496338_7aaaf184.jpg'}]",2022-08-23T12:34:32,116.857974,35.562792,116.85251420687656,35.56309310146492,体育休闲服务,休闲场所,采摘园
65,B0IDOCBYPP,麻公社棋牌俱乐部,后庙大队西500米路南,山东省,370000,济宁市,537,邹城市,370883,15550717056,体育休闲服务;娱乐场所;棋牌室,[],2022-08-23T03:02:14,116.939642,35.408933,116.93415933930596,35.409350521557634,体育休闲服务,娱乐场所,棋牌室
66,B0IDO7EXVR,矿老板探宝乐园,北湖省级旅游度假区吾悦广场太白厅3层307号,山东省,370000,济宁市,537,任城区,370811,[],体育休闲服务;休闲场所;游乐场,[],2022-08-23T03:02:11,116.599844,35.36733,116.59455771804735,35.367820662958984,体育休闲服务,休闲场所,游乐场
67,B0IDOUBFWZ,蓝海豚儿童乐园泉林店,327国道,山东省,370000,济宁市,537,泗水县,370831,13165225811,体育休闲服务;休闲场所;游乐场,[],2022-08-23T03:02:10,117.514504,35.623222,117.50862513311246,35.62337133338781,体育休闲服务,休闲场所,游乐场
68,B0IDO5841W,星睿台球,长虹路206号,山东省,370000,济宁市,537,任城区,370811,13258005086,体育休闲服务;运动场馆;台球厅,[],2022-08-23T03:01:48,116.63177,35.431654,116.6264403693076,35.43206723691657,体育休闲服务,运动场馆,台球厅
69,B0IDOZVSY1,台球室,清河农商银行斜对过28米,山东省,370000,济宁市,537,鱼台县,370827,15269737654,体育休闲服务;运动场馆;台球厅,"[{'title': [], 'url': 'http://store.is.autonavi.com/showpic/ce1043760c5f50f022bc85791e9a83ec'}, {'title': [], 'url': 'http://store.is.autonavi.com/showpic/cb5f65ba5d81cb4e9692e8a725275ed1'}, {'title': [], 'url': 'http://store.is.autonavi.com/showpic/627fd196989197a66a3b5d869f6fb0bb'}]",2022-08-23T03:01:40,116.493852,35.103515,116.48836257690466,35.10406931445288,体育休闲服务,运动场馆,台球厅
70,B0IDOUD47Z,蓝海豚儿童乐园苏果店,泉源大道264号,山东省,370000,济宁市,537,泗水县,370831,13165225811,体育休闲服务;休闲场所;游乐场,[],2022-08-23T03:01:39,117.263736,35.656288,117.25785878596062,35.656377714562346,体育休闲服务,休闲场所,游乐场
71,B0FFGICTWQ,水狮娱乐酒吧,越河街道大闸口南街18号,山东省,370000,济宁市,537,任城区,370811,[],体育休闲服务;娱乐场所;娱乐场所,"[{'title': [], 'url': 'http://store.is.autonavi.com/showpic/68c856a147f53d1bc1bba5ab09e518f5'}, {'title': [], 'url': 'http://store.is.autonavi.com/showpic/5641604cfd9b9ff32c9323b6547f7fc5'}, {'title': [], 'url': 'http://store.is.autonavi.com/showpic/34061cf7e845389839fc57cfefbad015'}]",2022-08-22T18:45:21,116.585141,35.404419,116.5798502174673,35.40487467652598,体育休闲服务,娱乐场所,娱乐场所
72,B0IDTZGPS4,金悦汇KTV,321省道与商业街交叉口东160米,山东省,370000,济宁市,537,任城区,370811,[],体育休闲服务;娱乐场所;KTV,[],2022-08-22T02:26:26,116.45158,35.489979,116.4459158169344,35.49005826335439,体育休闲服务,娱乐场所,KTV
73,B0IDOZXHSC,星辰棋牌室,吕垭口银河小区南门西,山东省,370000,济宁市,537,梁山县,370832,15953742231,体育休闲服务;娱乐场所;棋牌室,"[{'title': [], 'url': 'http://store.is.autonavi.com/showpic/8f5b0c40b4e990eda73a2e01e8bb45e8'}, {'title': [], 'url': 'http://store.is.autonavi.com/showpic/5de94daa0d9bed6ce93664655c78b973'}, {'title': [], 'url': 'http://store.is.autonavi.com/showpic/030defc45957ab9df67833e57e3ef281'}]",2022-08-22T02:26:10,116.087121,35.81349,116.08127649389571,35.813357594497134,体育休闲服务,娱乐场所,棋牌室
74,B0IDTSO2D8,花生活·瑜伽,春秋路与荷香路交叉口东北180米,山东省,370000,济宁市,537,金乡县,370828,[],体育休闲服务;运动场馆;健身中心,[],2022-08-22T02:25:58,116.330266,35.067585,116.32467712566482,35.068102294115526,体育休闲服务,运动场馆,健身中心
75,B0ID1DBIP5,柳林湾露营基地,名泉路2089号,山东省,370000,济宁市,537,邹城市,370883,0537-5277666;18754726686,体育休闲服务;体育休闲服务场所;体育休闲服务场所,[],2022-08-22T02:25:01,117.01712,35.387942,117.01134414609496,35.38817111176285,体育休闲服务,体育休闲服务场所,体育休闲服务场所
76,B0ID1Z90P9,慕远体育·少儿篮球运动馆,国光路(任贤实验学校南邻院内),山东省,370000,济宁市,537,任城区,370811,18553777337,体育休闲服务;体育休闲服务场所;体育休闲服务场所,"[{'title': [], 'url': 'https://comment-oss-online.oss-cn-wulanchabu.aliyuncs.com/B0ID1Z90P9/comment/content_media_external_images_media_26629_1653639439271_58d5bc48.jpg'}, {'title': [], 'url': 'https://comment-oss-online.oss-cn-wulanchabu.aliyuncs.com/B0ID1Z90P9/comment/content_media_external_images_media_25884_1653639439272_bc3f0bf8.jpg'}, {'title': [], 'url': 'https://comment-oss-online.oss-cn-wulanchabu.aliyuncs.com/B0ID1Z90P9/comment/content_media_external_images_media_25166_1653639439272_516239db.jpg'}]",2022-08-22T02:24:53,116.609806,35.389494,116.6045113167284,35.38996240604221,体育休闲服务,体育休闲服务场所,体育休闲服务场所
77,B0ID17PV32,郑氏庄园,邹王线,山东省,370000,济宁市,537,邹城市,370883,[],体育休闲服务;休闲场所;休闲场所,[],2022-08-22T02:24:43,117.041436,35.345773,117.03557162021652,35.34597413629671,体育休闲服务,休闲场所,休闲场所
78,B02190APRM,万佳腾飞爱尚网咖,文化路26号,山东省,370000,济宁市,537,梁山县,370832,[],体育休闲服务;娱乐场所;网吧,[],2022-08-21T13:24:05,116.090278,35.796814,116.08443501611224,35.79668598843816,体育休闲服务,娱乐场所,网吧
79,B0IDO56LTC,王老三农家院,天罡路与杏花村路交叉口西北80米,山东省,370000,济宁市,537,梁山县,370832,[],体育休闲服务;休闲场所;休闲场所,[],2022-08-21T02:27:00,116.121995,35.784604,116.11617939977248,35.784490467963614,体育休闲服务,休闲场所,休闲场所
80,B0ID9AICA9,唐汇KTV(汶上中达广场店),市政路与环城南路交叉口西120米,山东省,370000,济宁市,537,汶上县,370830,[],体育休闲服务;娱乐场所;KTV,[],2022-08-21T02:26:48,116.5035,35.706895,116.49798324468172,35.70698915333845,体育休闲服务,娱乐场所,KTV
81,B0ID1Z8MP6,嗨啤吧青岛北厂直营店,银都花园怡心园19-22号楼西首商业房第21,山东省,370000,济宁市,537,任城区,370811,15206760299,体育休闲服务;娱乐场所;酒吧,"[{'title': [], 'url': 'http://store.is.autonavi.com/showpic/997c0739af8d5627f8a3585581c7b984'}, {'title': [], 'url': 'https://comment-oss-online.oss-cn-wulanchabu.aliyuncs.com/B0ID1Z8MP6/comment/EC14F2AB_2AC8_4116_995E_39683484DC9B_L0_001_IMG_2842_1653385566199_686504a9.JPG'}, {'title': [], 'url': 'https://comment-oss-online.oss-cn-wulanchabu.aliyuncs.com/B0ID1Z8MP6/comment/21E14E48_4AC8_46BA_84AC_DCE3DBA0FA2B_L0_001_IMG_2863_1653385786024_393941a8.JPG'}]",2022-08-21T02:26:06,116.617985,35.411726,116.61267921928078,35.41217023779563,体育休闲服务,娱乐场所,酒吧
82,B0GUYX60WL,龙仁跆拳道(大王庄分校),连菏线大王庄社区东南侧,山东省,370000,济宁市,537,嘉祥县,370829,18253755345,体育休闲服务;运动场馆;跆拳道场馆,"[{'title': [], 'url': 'http://store.is.autonavi.com/showpic/25edc919e8a04976bbea84f524ec35ef'}]",2022-08-20T22:36:41,116.393245,35.389672,116.38752618711712,35.389778931687445,体育休闲服务,运动场馆,跆拳道场馆
83,B0IDM7YCE2,M·空间普拉提,春秋东路,山东省,370000,济宁市,537,曲阜市,370881,[],体育休闲服务;体育休闲服务场所;体育休闲服务场所,[],2022-08-20T03:17:24,117.011382,35.57791,117.00560983014296,35.57801735547413,体育休闲服务,体育休闲服务场所,体育休闲服务场所
84,B0IDL55W6Z,东方田园农家院,济邹路南贯集立交桥北首路东,山东省,370000,济宁市,537,任城区,370811,15264732633,体育休闲服务;休闲场所;休闲场所,"[{'title': [], 'url': 'http://store.is.autonavi.com/showpic/17853e8224cb409a3d3675b3bde2e80e'}, {'title': [], 'url': 'http://store.is.autonavi.com/showpic/13053790eeeb7461d55570813d15ebfd'}, {'title': [], 'url': 'http://store.is.autonavi.com/showpic/ab6d0f8ff1146d89598238a1d284c08c'}]",2022-08-20T02:31:16,116.734982,35.367833,116.72942812964126,35.36814001029332,体育休闲服务,休闲场所,休闲场所
85,B0IDCZRIFL,鹏洋乒乓球俱乐部,南张镇刘前村13胡同693号,山东省,370000,济宁市,537,任城区,370811,13465471273,体育休闲服务;运动场馆;乒乓球馆,"[{'title': [], 'url': 'http://store.is.autonavi.com/showpic/4f0621d8e09e4806f8c08ce33ceacc82'}, {'title': [], 'url': 'http://store.is.autonavi.com/showpic/c308b1f4227bcc6a3bcceb0ddb03f704'}, {'title': [], 'url': 'http://store.is.autonavi.com/showpic/66891cd7acc5f36a514682e7bdff3b9a'}]",2022-08-19T23:27:01,116.542969,35.433868,116.53760760575484,35.43423823929393,体育休闲服务,运动场馆,乒乓球馆
86,B0FFI8WT3A,莲·瑜伽,建设路建设小区门西秀荷旗袍会馆,山东省,370000,济宁市,537,微山县,370826,13963739268,体育休闲服务;运动场馆;健身中心,[],2022-08-19T19:08:27,117.13178,34.818004,117.12586454964848,34.81871828052049,体育休闲服务,运动场馆,健身中心
87,B0IDR7TG4C,泗水县金羽飞扬羽毛球馆,建设路6号,山东省,370000,济宁市,537,泗水县,370831,[],体育休闲服务;体育休闲服务场所;体育休闲服务场所,[],2022-08-19T02:40:57,117.27286,35.643223,117.26697279566945,35.64331306742063,体育休闲服务,体育休闲服务场所,体育休闲服务场所
88,B0IDRSELEG,清禾蓝莓采摘园,峄山南路3999号,山东省,370000,济宁市,537,邹城市,370883,[],体育休闲服务;休闲场所;采摘园,[],2022-08-19T02:40:46,116.991344,35.33508,116.98568299661108,35.335433376983175,体育休闲服务,休闲场所,采摘园
89,B0IDR7QIM1,青忆音乐酒吧,金龙湾文旅小镇A1号,山东省,370000,济宁市,537,金乡县,370828,[],体育休闲服务;娱乐场所;酒吧,[],2022-08-19T02:40:25,116.293184,35.063797,116.28766768691092,35.06438418967164,体育休闲服务,娱乐场所,酒吧
90,B0IDR7T0LR,尚珈·瑜伽,千泉街道民泰路齐鲁时代花园二期西门森马二楼,山东省,370000,济宁市,537,邹城市,370883,15092720620,体育休闲服务;运动场馆;健身中心,[],2022-08-19T02:40:18,117.014144,35.413611,117.0083777729064,35.413827382971675,体育休闲服务,运动场馆,健身中心
91,B0FFIK4BF3,齐畅KTV,设计院路昌平商贸城二楼,山东省,370000,济宁市,537,邹城市,370883,[],体育休闲服务;娱乐场所;KTV,[],2022-08-18T23:07:05,116.953529,35.413364,116.9480052038485,35.41375094892167,体育休闲服务,娱乐场所,KTV
92,B0FFIWMWMW,荷都渔村,东风东路与泰康街交叉路口往东约230米,山东省,370000,济宁市,537,微山县,370826,15854798608,体育休闲服务;体育休闲服务场所;体育休闲服务场所,[],2022-08-18T16:38:24,117.155907,34.800671,117.15002660914726,34.80144101090741,体育休闲服务,体育休闲服务场所,体育休闲服务场所
93,B0FFGERE6L,南屯煤矿体育场,北宿镇,山东省,370000,济宁市,537,邹城市,370883,[],体育休闲服务;运动场馆;综合体育馆,"[{'title': [], 'url': 'http://store.is.autonavi.com/showpic/ca6279c63274e51dd25e11ba9971bbef'}]",2022-08-18T13:22:49,116.886104,35.371323,116.8806876501858,35.37179952089385,体育休闲服务,运动场馆,综合体育馆
94,B0IDNUI7UF,第三极藏式酒馆,清真寺东门下坡C08号,山东省,370000,济宁市,537,任城区,370811,15550712345;0537-2659898,体育休闲服务;娱乐场所;酒吧,"[{'title': [], 'url': 'http://store.is.autonavi.com/showpic/b8c2ea1e9da1661054ada4d068663961'}]",2022-08-18T09:43:22,116.587537,35.404603,116.58224715582818,35.40505972093472,体育休闲服务,娱乐场所,酒吧
95,B0ID7RS7Z9,嘻哈减压馆,大世界购物中心三楼,山东省,370000,济宁市,537,曲阜市,370881,17616527123,体育休闲服务;娱乐场所;娱乐场所,"[{'title': [], 'url': 'http://store.is.autonavi.com/showpic/a1a2b93f6cc09cc455bf2407a6a251e5'}, {'title': [], 'url': 'http://store.is.autonavi.com/showpic/9914d544423dc51df70dcab9bbc7c895'}, {'title': [], 'url': 'http://store.is.autonavi.com/showpic/666be0d6592732c3031035f48337a13b'}]",2022-08-18T02:31:14,116.993531,35.594081,116.98783336059446,35.594232746013155,体育休闲服务,娱乐场所,娱乐场所
96,B0ID7ZW7HI,桃源居生态园,息陬盛爱路,山东省,370000,济宁市,537,曲阜市,370881,[],体育休闲服务;休闲场所;休闲场所,[],2022-08-18T02:31:00,117.063703,35.545062,117.05775111459528,35.545064271704945,体育休闲服务,休闲场所,休闲场所
97,B0ID7SWAXM,邹城市静心瑜伽馆,鑫琦乐购北门对过,山东省,370000,济宁市,537,邹城市,370883,[],体育休闲服务;运动场馆;健身中心,"[{'title': [], 'url': 'http://store.is.autonavi.com/showpic/ca4a2c9e26ce71d5373758cb3b82aaec'}]",2022-08-18T02:30:46,117.017595,35.419384,117.01181383458588,35.41958554157253,体育休闲服务,运动场馆,健身中心
98,B0ID77JHCX,济宁高新区星巴台球俱乐部,柳行街道办事处杨柳国际新城小公寓15号楼东数第6间房二层,山东省,370000,济宁市,537,任城区,370811,15154715584,体育休闲服务;运动场馆;台球厅,[],2022-08-18T02:30:35,116.652724,35.439614,116.64734743932505,35.43998819560782,体育休闲服务,运动场馆,台球厅
99,B0IDCZTM3I,壹号台球俱乐部,大张楼镇x051与s319路交汇处向东50米路北中心街267号2楼,山东省,370000,济宁市,537,嘉祥县,370829,15154774666,体育休闲服务;运动场馆;台球厅,[],2022-08-17T02:28:06,116.266178,35.533942,116.26064194298188,35.53412047563635,体育休闲服务,运动场馆,台球厅
100,B0ID15GUFI,乒乓球,归德南路与裕隆路交叉口北240米,山东省,370000,济宁市,537,曲阜市,370881,[],体育休闲服务;运动场馆;乒乓球馆,[],2022-08-17T02:27:36,116.981708,35.592267,116.97606026777044,35.59245492950419,体育休闲服务,运动场馆,乒乓球馆
101,B0ID7ZWELO,世纪台球俱乐部,留庄荆河小区圆通快递东30米世纪台球,山东省,370000,济宁市,537,微山县,370826,18853752634,体育休闲服务;运动场馆;台球厅,"[{'title': [], 'url': 'http://store.is.autonavi.com/showpic/273f64e1002ea66c64d5382c1d1298e7'}, {'title': [], 'url': 'http://store.is.autonavi.com/showpic/306366dd71a36229aa655a8ce9ee440c'}, {'title': [], 'url': 'http://store.is.autonavi.com/showpic/a308fd89a75cbd2a41fbb1e71b502310'}]",2022-08-17T02:27:00,116.942623,35.002685,116.93717386246333,35.00351031288358,体育休闲服务,运动场馆,台球厅
102,B0IDLSXDYT,宝莱台球,大学东路与弘道路交叉口北60米,山东省,370000,济宁市,537,曲阜市,370881,[],体育休闲服务;运动场馆;台球厅,[],2022-08-16T03:20:47,116.971402,35.594828,116.965795299104,35.59504339041817,体育休闲服务,运动场馆,台球厅
103,B0IB1RDORE,静沐瑜伽,嘉北路与建设路交叉口东340米,山东省,370000,济宁市,537,嘉祥县,370829,[],体育休闲服务;运动场馆;健身中心,[],2022-08-16T03:09:52,116.340553,35.425958,116.33490513766016,35.42610170908726,体育休闲服务,运动场馆,健身中心
104,B0IDUSRFAP,邹城市君豪绿色生态樱桃采摘园,香城镇王庙村泉香路,山东省,370000,济宁市,537,邹城市,370883,15166418777;13562752073,体育休闲服务;休闲场所;采摘园,[],2022-08-16T02:48:13,117.113611,35.352076,117.10762620991471,35.35220585864174,体育休闲服务,休闲场所,采摘园
105,B0IDUZRBKS,翰宁棋牌室,金宇路置城八号公馆南门东侧涵宁烟酒茶商行二楼,山东省,370000,济宁市,537,任城区,370811,15553757271,体育休闲服务;娱乐场所;棋牌室,[],2022-08-16T02:47:50,116.626895,35.430785,116.621574095738,35.43120490686191,体育休闲服务,娱乐场所,棋牌室
106,B0IDU519HF,大湖垂钓园,鑫联路与五营山北路交叉口西460米,山东省,370000,济宁市,537,曲阜市,370881,[],体育休闲服务;休闲场所;垂钓园,[],2022-08-16T02:47:43,117.126237,35.543187,117.12023799734204,35.54317957791502,体育休闲服务,休闲场所,垂钓园
107,B0FFKGQNU5,迈可达跆拳道,薛口家园西侧育贤路路东中德广场东门对过,山东省,370000,济宁市,537,任城区,370811,[],体育休闲服务;运动场馆;跆拳道场馆,"[{'title': [], 'url': 'http://store.is.autonavi.com/showpic/80e01045ea591214b1e802ae6062b73e'}]",2022-08-15T23:25:36,116.612358,35.440517,116.60705578663044,35.44094219924099,体育休闲服务,运动场馆,跆拳道场馆
108,B0IA2Z47KS,邹城市护驾山小学体育馆,邾国大道与金山大道交叉口西280米,山东省,370000,济宁市,537,邹城市,370883,[],体育休闲服务;运动场馆;综合体育馆,[],2022-08-15T17:17:46,117.011216,35.390061,117.0054645631972,35.390305751859,体育休闲服务,运动场馆,综合体育馆
109,B0ID5CT15M,南湖台球俱乐部,南站街道开发区新世纪路1699号(三楼),山东省,370000,济宁市,537,汶上县,370830,17616548886,体育休闲服务;运动场馆;台球厅,"[{'title': [], 'url': 'http://store.is.autonavi.com/showpic/c3db049ddd454f212fe7bc87b60ea76f'}, {'title': [], 'url': 'http://store.is.autonavi.com/showpic/6c9ece3ca11ededb014979585c264587'}, {'title': [], 'url': 'http://store.is.autonavi.com/showpic/2e01a671e962fae7544f9a79e6d343e2'}]",2022-08-15T04:12:46,116.497862,35.698626,116.49232581043344,35.69870696234766,体育休闲服务,运动场馆,台球厅
110,B0ID5ZKPYE,处方酒馆,北兴路东3巷9号,山东省,370000,济宁市,537,邹城市,370883,[],体育休闲服务;娱乐场所;酒吧,"[{'title': [], 'url': 'http://store.is.autonavi.com/showpic/ad18f719188a59a0045f1b8e0f571cbf'}, {'title': [], 'url': 'http://store.is.autonavi.com/showpic/57cd4c39b216f5b29106d16a4388f2d2'}]",2022-08-14T02:48:08,116.977999,35.417957,116.97238470565831,35.41827781127146,体育休闲服务,娱乐场所,酒吧
111,B0IDH5MHC2,怡丰生态园(大樱桃采摘园),二十里铺长兴路怡丰生态园,山东省,370000,济宁市,537,任城区,370811,18854780033,体育休闲服务;休闲场所;采摘园,"[{'title': [], 'url': 'http://store.is.autonavi.com/showpic/ecfc046333ca4bc7fa28e30152c21c58'}, {'title': [], 'url': 'http://store.is.autonavi.com/showpic/35644711cf9f235d796807d33e5ce385'}, {'title': [], 'url': 'http://store.is.autonavi.com/showpic/7fdcf0dbf584e71f24449f70b8e4ec26'}]",2022-08-14T02:47:38,116.549584,35.503723,116.54423202252607,35.504055216479976,体育休闲服务,休闲场所,采摘园
112,B0G259XWAV,弘德武道馆,太平东路龙泉花园,山东省,370000,济宁市,537,邹城市,370883,[],体育休闲服务;运动场馆;运动场所,[],2022-08-14T00:42:06,117.012002,35.408477,117.00624529726235,35.40870396874727,体育休闲服务,运动场馆,运动场所
113,B0IDDROFYD,有局茶社,李营街道长泰兰园门面房105,山东省,370000,济宁市,537,任城区,370811,13563788000,体育休闲服务;娱乐场所;棋牌室,"[{'title': [], 'url': 'http://store.is.autonavi.com/showpic/96eaf81974e79c75161dae0f569b2a28'}, {'title': [], 'url': 'https://comment-oss-online.oss-cn-wulanchabu.aliyuncs.com/B0IDDROFYD/comment/D5FADF64_377C_4E98_8D51_17E1A3812B09_L0_001_IMG_3360_1653011107948_ec3f9318.JPG'}, {'title': [], 'url': 'https://comment-oss-online.oss-cn-wulanchabu.aliyuncs.com/B0IDDROFYD/comment/170B1EC0_5580_474D_B4BD_A245DDB45E34_L0_001_IMG_3362_1653011107948_84c30c88.JPG'}]",2022-08-13T05:10:18,116.596906,35.444374,116.5916128098788,35.44480086428987,体育休闲服务,娱乐场所,棋牌室
114,B0IDD5DSZ3,宁宁樱桃采摘园,泉香路宁宁樱桃采摘园,山东省,370000,济宁市,537,邹城市,370883,18053760176,体育休闲服务;休闲场所;采摘园,[],2022-08-13T02:33:45,117.113691,35.352277,117.10770620744977,35.35240672963476,体育休闲服务,休闲场所,采摘园
115,B0FFFGT91L,水云轩商务会馆游泳池,新华路与红星西路交叉口西北150米,山东省,370000,济宁市,537,任城区,370811,0537-2222733,体育休闲服务;运动场馆;游泳馆|生活服务;洗浴推拿场所;洗浴推拿场所,"[{'title': [], 'url': 'http://store.is.autonavi.com/showpic/7bb6d8dd788daf82152e29b76e42786e'}]",2022-08-12T13:27:32,116.557848,35.417301,116.55252251709,35.41771450421305,体育休闲服务,运动场馆,游泳馆
116,B0IDUDWT1K,锋锋台球,章山村村民委员会东北侧250米,山东省,370000,济宁市,537,嘉祥县,370829,[],体育休闲服务;运动场馆;台球厅,[],2022-08-12T02:47:42,116.32189,35.426037,116.31628210114884,35.426216139566826,体育休闲服务,运动场馆,台球厅
117,B0IDS5JT6R,糖果马车陶艺手工馆,百货大楼北三层,山东省,370000,济宁市,537,邹城市,370883,[],体育休闲服务;体育休闲服务场所;体育休闲服务场所,[],2022-08-12T02:46:15,116.970233,35.404883,116.96465067277684,35.405236029466536,体育休闲服务,体育休闲服务场所,体育休闲服务场所
118,B0IDZ7AJB8,蕊蕊樱桃采摘园,香城镇王庙村梨园路北首路西第二个口右转,山东省,370000,济宁市,537,邹城市,370883,[],体育休闲服务;休闲场所;采摘园,"[{'title': [], 'url': 'http://store.is.autonavi.com/showpic/4cf76ff2d56e1e5f4571a565b96b7930'}, {'title': [], 'url': 'http://store.is.autonavi.com/showpic/d0d5fed03bfdbe70b53b4b5626821578'}, {'title': [], 'url': 'https://comment-oss-online.oss-cn-wulanchabu.aliyuncs.com/B0IDZ7AJB8/headerImg/content_media_external_images_media_3905_1652329148950_38e43248.jpg'}]",2022-08-11T03:07:54,117.116325,35.350222,117.11034124311468,35.350355384352376,体育休闲服务,休闲场所,采摘园
119,B0IDAC1U3B,梁山寿星老年公寓,公明路宏志中学东200米路北,山东省,370000,济宁市,537,梁山县,370832,[],体育休闲服务;度假疗养场所;疗养院,[],2022-08-10T02:49:13,116.064031,35.814968,116.05820477095052,35.81485858702712,体育休闲服务,度假疗养场所,疗养院
120,B0FFJFS7H3,纸坊镇南山湾生态园,纸坊镇隋庄村,山东省,370000,济宁市,537,嘉祥县,370829,15864131995,体育休闲服务;体育休闲服务场所;体育休闲服务场所,[],2022-08-09T10:22:31,116.304135,35.319276,116.29857388381023,35.31958024241829,体育休闲服务,体育休闲服务场所,体育休闲服务场所
121,B0IDMCWCAR,秀英甜瓜采摘园,237国道,山东省,370000,济宁市,537,任城区,370811,13153766513,体育休闲服务;休闲场所;采摘园,[],2022-08-09T03:07:47,116.507702,35.202848,116.50225191901316,35.20333725672065,体育休闲服务,休闲场所,采摘园
122,B0IDM5YIXV,名逸台球俱乐部,镇中街195号,山东省,370000,济宁市,537,微山县,370826,[],体育休闲服务;运动场馆;台球厅,[],2022-08-09T03:07:42,117.123408,34.806033,117.11748668587153,34.80675036949999,体育休闲服务,运动场馆,台球厅
123,B0IDYUVMSB,9球俱乐部,嘉兴路,山东省,370000,济宁市,537,嘉祥县,370829,[],体育休闲服务;运动场馆;台球厅,[],2022-08-08T05:04:48,116.412565,35.415221,116.40684547070175,35.41530705426669,体育休闲服务,运动场馆,台球厅
124,B0IDYAW6DD,梁山奥体羽毛球俱乐部,鹏程汽贸院内,山东省,370000,济宁市,537,梁山县,370832,16734498888,体育休闲服务;运动场馆;羽毛球场,[],2022-08-08T04:59:27,116.115524,35.757126,116.10970203932912,35.75701747572451,体育休闲服务,运动场馆,羽毛球场
125,B0GRDZGQQY,荷花浦旅游区,留庄镇满口村,山东省,370000,济宁市,537,微山县,370826,13376327399,体育休闲服务;休闲场所;休闲场所,"[{'title': [], 'url': 'http://store.is.autonavi.com/showpic/c3c527f7fa3dce06771a0dd0c5057718'}, {'title': [], 'url': 'http://aos-cdn-image.amap.com/sns/ugccomment/4620211b-15e9-4f43-87bd-be4c7f0ab819.jpg'}, {'title': [], 'url': 'http://aos-cdn-image.amap.com/sns/ugccomment/6b827e6a-be33-4b40-8de7-d67f7495494c.jpg'}]",2022-08-07T04:22:56,116.92367,34.963554,116.91826747132971,34.96444957700484,体育休闲服务,休闲场所,休闲场所
126,B0IDGUTOVV,小欢瑜+会馆,金乡县经济园四道街17号三楼,山东省,370000,济宁市,537,金乡县,370828,[],体育休闲服务;运动场馆;健身中心,"[{'title': [], 'url': 'http://store.is.autonavi.com/showpic/197cc154723ffb1b00a9031ff0b791ce'}, {'title': [], 'url': 'http://store.is.autonavi.com/showpic/d3776cd32aca84c6c0459dcc6da8a0e1'}]",2022-08-07T02:26:15,116.296282,35.070083,116.29076011113234,35.07065855833024,体育休闲服务,运动场馆,健身中心
127,B0IDPCRISO,义豪垂钓农家院,安居街道宫白庄加油站向北杨庄路口600路西,山东省,370000,济宁市,537,任城区,370811,16532081888,体育休闲服务;休闲场所;休闲场所,"[{'title': [], 'url': 'https://aos-comment.amap.com/B0IDPCRISO/comment/content_media_external_images_media_15715_1656724917960_d104a8f8.jpg'}, {'title': [], 'url': 'https://aos-comment.amap.com/B0IDPCRISO/comment/content_media_external_images_media_15658_1656724917961_444ae828.jpg'}, {'title': [], 'url': 'https://aos-comment.amap.com/B0IDPCRISO/comment/content_media_external_images_media_15072_1656724917961_ad4f71c8.jpg'}]",2022-08-06T03:58:47,116.470943,35.388076,116.46534572821578,35.38828179329743,体育休闲服务,休闲场所,休闲场所
128,B0IDP5Q4QX,燃点酒吧,泗河办丰收路中段路西(圣融庭院31号商铺),山东省,370000,济宁市,537,泗水县,370831,[],体育休闲服务;娱乐场所;酒吧,[],2022-08-06T03:58:36,117.274819,35.657918,117.26892729270766,35.65799878669747,体育休闲服务,娱乐场所,酒吧
129,B0ID47O4Z3,朝歌娱乐,拳堂路19号南杜社区南86米,山东省,370000,济宁市,537,梁山县,370832,[],体育休闲服务;娱乐场所;KTV,[],2022-08-05T04:50:54,116.150452,35.696675,116.14470508065396,35.69663630356915,体育休闲服务,娱乐场所,KTV
130,B0ID4CNQDG,戴庄垂钓园,G35济广高速,山东省,370000,济宁市,537,梁山县,370832,[],体育休闲服务;休闲场所;垂钓园,[],2022-08-05T04:50:38,116.15806,35.654618,116.15233688826726,35.65461291334893,体育休闲服务,休闲场所,垂钓园
131,B0ID4UOBPZ,柳林二村篮球场,南旺镇柳林闸二村,山东省,370000,济宁市,537,汶上县,370830,[],体育休闲服务;体育休闲服务场所;体育休闲服务场所,[],2022-08-05T04:50:21,116.393789,35.579673,116.38804992443816,35.57964153665794,体育休闲服务,体育休闲服务场所,体育休闲服务场所
132,B0IDB9M6C1,南街音乐酒吧,兖兰路嘉祥宾馆南40米路东,山东省,370000,济宁市,537,嘉祥县,370829,[],体育休闲服务;娱乐场所;酒吧,"[{'title': [], 'url': 'https://aos-comment.amap.com/B0IDB9M6C1/headerImg/content_media_external_images_media_27702_1658567297222_6c1d8e0e.jpg'}, {'title': [], 'url': 'https://aos-comment.amap.com/B0IDB9M6C1/comment/content_media_external_images_media_27408_1658567386250_1cf5829d.jpg'}]",2022-08-04T03:50:00,116.343641,35.393936,116.3379900507591,35.39410042564299,体育休闲服务,娱乐场所,酒吧
133,B0IDNRK3M6,家和樱桃园,泉香路,山东省,370000,济宁市,537,邹城市,370883,13854703214,体育休闲服务;休闲场所;采摘园,[],2022-08-03T05:02:41,117.118802,35.361742,117.11281804576863,35.361867070552364,体育休闲服务,休闲场所,采摘园
134,B0IDN5KI1Y,优冠篮球总部·青少年篮球训练基地,海南东路最东头路北,山东省,370000,济宁市,537,任城区,370811,15688408555,体育休闲服务;体育休闲服务场所;体育休闲服务场所,[],2022-08-03T05:02:36,116.628342,35.397203,116.62302200712593,35.39764873368471,体育休闲服务,体育休闲服务场所,体育休闲服务场所
135,B0IATZO321,济宁乐菲酷健身俱乐部(科苑店),阳光盛景园1号商业楼0317室,山东省,370000,济宁市,537,任城区,370811,13255470011,体育休闲服务;运动场馆;健身中心,"[{'title': [], 'url': 'http://store.is.autonavi.com/showpic/ae9f455ccbcb0cf600889abfd029b0e2'}, {'title': [], 'url': 'http://store.is.autonavi.com/showpic/ef46e9ac4787f64d4874374963443c49'}, {'title': [], 'url': 'http://store.is.autonavi.com/showpic/f1ce8074fca845e68e50e4ed3daf4877'}]",2022-08-02T14:57:07,116.616265,35.427927,116.61095972842952,35.428359464996404,体育休闲服务,运动场馆,健身中心
136,B0FFH30JL3,后山山宏拓庄园,盛果寺冷库正对面,山东省,370000,济宁市,537,曲阜市,370881,[],体育休闲服务;休闲场所;休闲场所,"[{'title': [], 'url': 'http://store.is.autonavi.com/showpic/f979ef0f292e17b916d4392381443a42'}]",2022-08-02T14:29:15,117.003234,35.614242,116.99749264512344,35.61435278499226,体育休闲服务,休闲场所,休闲场所
137,B0ID4SPJ0S,九喜酒家,南苑商业街车站西路与玄帝庙街交叉口向北188米路西,山东省,370000,济宁市,537,任城区,370811,[],体育休闲服务;娱乐场所;棋牌室,"[{'title': [], 'url': 'http://store.is.autonavi.com/showpic/a44ad811e4c6b8ab45323543dc3b039a'}, {'title': [], 'url': 'http://store.is.autonavi.com/showpic/2d23b40e5577ee104833d6b95ff10c34'}, {'title': [], 'url': 'http://store.is.autonavi.com/showpic/07e0531af217da00a48e452d9939f35f'}]",2022-08-02T12:56:59,116.572487,35.385052,116.56718773598932,35.38551341195704,体育休闲服务,娱乐场所,棋牌室
138,B0IAXU2IYI,金乡县汇鑫国际影城,金城路32号,山东省,370000,济宁市,537,金乡县,370828,15964739888,体育休闲服务;影剧院;电影院,[],2022-08-02T12:31:54,116.316062,35.057891,116.31050421981192,35.05844607078879,体育休闲服务,影剧院,电影院
139,B0IAJ7ZBH3,尚武国际跆拳道,人民路与步行街交叉口南80米,山东省,370000,济宁市,537,泗水县,370831,17661339108;17562106699,体育休闲服务;运动场馆;跆拳道场馆,"[{'title': [], 'url': 'http://store.is.autonavi.com/showpic/39bbd25d9da1687e72bdf8d909b31c0f'}, {'title': [], 'url': 'http://store.is.autonavi.com/showpic/80d82e6591bf5b490dd458b60be308a2'}, {'title': [], 'url': 'http://store.is.autonavi.com/showpic/e11983964270ccca8c954d7360b55834'}]",2022-08-02T10:31:40,117.27905,35.648595,117.27315252929552,35.64867633766836,体育休闲服务,运动场馆,跆拳道场馆
140,B0IRUAYHZW,唐中宗筋健身俱乐部,钟山楼中路运河城京杭中心B座10楼1008-1009号,山东省,370000,济宁市,537,任城区,370811,0537-3169686,体育休闲服务;运动场馆;健身中心,"[{'title': [], 'url': 'http://store.is.autonavi.com/showpic/e5193485fc54807d71fae51e4144f596'}]",2022-08-02T10:23:42,116.590048,35.406996,116.58475857086049,35.40745171245153,体育休闲服务,运动场馆,健身中心
141,B0G2A553TT,海世界水上乐园,羊山景区卫生所北侧170米,山东省,370000,济宁市,537,金乡县,370828,[],体育休闲服务;休闲场所;水上活动中心,[],2022-08-02T09:52:19,116.241524,35.172184,116.23602288569394,35.172685851828454,体育休闲服务,休闲场所,水上活动中心
142,B0IRYUAV1N,Helens海伦司(济宁苏宁生活广场店),钟山楼中路8-14号,山东省,370000,济宁市,537,任城区,370811,0537-2273968,体育休闲服务;娱乐场所;酒吧,[],2022-08-02T09:37:07,116.592995,35.405899,116.58770599603136,35.40635640813886,体育休闲服务,娱乐场所,酒吧
143,B0IAJMUNVG,后来,319省道与长安大街交叉口北260米,山东省,370000,济宁市,537,嘉祥县,370829,[],体育休闲服务;娱乐场所;KTV,[],2022-08-02T05:10:44,116.152488,35.600499,116.14675635079912,35.600513313444694,体育休闲服务,娱乐场所,KTV
144,B0HR5RCD68,Deepsea.浅海酒吧,钟山路万达写字楼对过消防队东,山东省,370000,济宁市,537,任城区,370811,[],体育休闲服务;娱乐场所;酒吧,"[{'title': [], 'url': 'http://store.is.autonavi.com/showpic/313189b9eab04205143d79ec2126b6b0'}, {'title': [], 'url': 'http://store.is.autonavi.com/showpic/50a2fff8a5ba2eca35d97f889d281d7e'}, {'title': [], 'url': 'http://store.is.autonavi.com/showpic/f4122ac1865b2ee6192a6197a19524e1'}]",2022-08-02T05:09:04,116.600523,35.406135,116.59523258240183,35.40659247119334,体育休闲服务,娱乐场所,酒吧
145,B0IAFD9OB5,咔叮卡丁(济宁高新区爱琴海购物公园店),崇文大道437号爱琴海五楼东万达影城斜对面,山东省,370000,济宁市,537,任城区,370811,18953739349,体育休闲服务;休闲场所;游乐场,[],2022-08-02T03:20:24,116.695768,35.424234,116.69028100651828,35.424540609693146,体育休闲服务,休闲场所,游乐场
146,B0IDKSJQG1,佲爵台球会馆,海南西路1号,山东省,370000,济宁市,537,任城区,370811,13287281234,体育休闲服务;运动场馆;台球厅,"[{'title': [], 'url': 'http://store.is.autonavi.com/showpic/78ee840021895c7eb9ef32657d1ed389'}, {'title': [], 'url': 'http://store.is.autonavi.com/showpic/7145e87c705e7f2744e58e9c60afeb97'}]",2022-08-02T03:17:03,116.6225,35.39776,116.61718936629792,35.39821169058476,体育休闲服务,运动场馆,台球厅
147,B02190ASVM,曲阜市干休所,康宁街1号,山东省,370000,济宁市,537,曲阜市,370881,[],体育休闲服务;度假疗养场所;疗养院,"[{'title': [], 'url': 'http://store.is.autonavi.com/showpic/567a4d61a3102e78f395a029'}]",2022-08-02T02:04:25,116.987309,35.587734,116.98163841652128,35.58790814292446,体育休闲服务,度假疗养场所,疗养院
148,B0IRV7S5MF,优布劳精谷物馆,鼓楼北街与后作街交叉处北100米,山东省,370000,济宁市,537,曲阜市,370881,[],体育休闲服务;娱乐场所;酒吧,[],2022-08-01T23:21:10,116.992789,35.599405,116.98709396018036,35.59955589465301,体育休闲服务,娱乐场所,酒吧
149,B0IR213YZC,燕儿瑜伽,宁民路与市政路交口东南100米,山东省,370000,济宁市,537,汶上县,370830,[],体育休闲服务;运动场馆;健身中心,[],2022-08-01T22:34:30,116.488527,35.707438,116.48295642295312,35.707487189751035,体育休闲服务,运动场馆,健身中心
150,B0IAJDVMJU,缘份月亮音乐酒吧,酒吧街与纸坊街中山北路北60米,山东省,370000,济宁市,537,任城区,370811,[],体育休闲服务;娱乐场所;酒吧,[],2022-08-01T22:31:18,116.584857,35.404566,116.57956606781444,35.40502139520807,体育休闲服务,娱乐场所,酒吧
151,B0IAJDW89A,崇尚跆拳道,长虹路与机电四路交叉口北80米,山东省,370000,济宁市,537,任城区,370811,[],体育休闲服务;运动场馆;跆拳道场馆,[],2022-08-01T22:01:13,116.632779,35.436737,116.62744695470606,35.43714487392096,体育休闲服务,运动场馆,跆拳道场馆
152,B0H1X4312E,威儿酷儿童运动馆,文化西路与扬州北路交叉口西南100米,山东省,370000,济宁市,537,兖州区,370812,[],体育休闲服务;体育休闲服务场所;体育休闲服务场所,[],2022-08-01T21:34:05,116.795473,35.558966,116.78991070482874,35.55915992132191,体育休闲服务,体育休闲服务场所,体育休闲服务场所
153,B0IRTXJ486,东方文旅幸福之家,南马道西街与鼓楼南街交叉口西北20米,山东省,370000,济宁市,537,曲阜市,370881,[],体育休闲服务;体育休闲服务场所;体育休闲服务场所,[],2022-08-01T21:24:18,116.992511,35.591631,116.98681796987334,35.591787260232344,体育休闲服务,体育休闲服务场所,体育休闲服务场所
154,B0IR214FV1,大四喜棋牌休闲活动,供销路与吴泰闸路中山北路北280米,山东省,370000,济宁市,537,任城区,370811,[],体育休闲服务;体育休闲服务场所;体育休闲服务场所,[],2022-08-01T21:12:05,116.603158,35.426817,116.59786429076516,35.4272570916271,体育休闲服务,体育休闲服务场所,体育休闲服务场所
155,B0IDM9XE9T,嗨唱时刻,观鱼大道与工业路交叉口西北460米,山东省,370000,济宁市,537,鱼台县,370827,[],体育休闲服务;娱乐场所;KTV,[],2022-08-01T05:39:57,116.621803,35.012668,116.6165317402949,35.01351272782711,体育休闲服务,娱乐场所,KTV
156,B0ID6D1ZMF,金隆垂钓中心,北宿镇丁庄村,山东省,370000,济宁市,537,邹城市,370883,15964729229,体育休闲服务;休闲场所;垂钓园,[],2022-08-01T04:46:24,116.903889,35.347562,116.89847152364788,35.34806457173831,体育休闲服务,休闲场所,垂钓园
157,B0IDAM3O7H,英九庄园,济水大道与居礼路交叉口东南180米,山东省,370000,济宁市,537,任城区,370811,[],体育休闲服务;休闲场所;休闲场所,[],2022-08-01T04:06:49,116.526628,35.398362,116.52122232924864,35.39872028778906,体育休闲服务,休闲场所,休闲场所
158,B0IDA71868,蓝夜POP,酒吧街与纸坊街交叉口东北20米,山东省,370000,济宁市,537,任城区,370811,[],体育休闲服务;娱乐场所;酒吧,[],2022-08-01T04:06:47,116.584378,35.403358,116.57908695082727,35.4038141239061,体育休闲服务,娱乐场所,酒吧
159,B0IDC7GJAQ,微山县竞技体育馆,东风路与镇中街交叉口东200米,山东省,370000,济宁市,537,微山县,370826,[],体育休闲服务;运动场馆;综合体育馆,[],2022-08-01T04:06:33,117.125744,34.804441,117.1198245661513,34.805162453011555,体育休闲服务,运动场馆,综合体育馆
160,B0IA9XSMGQ,壹号电竞,平阳西路699号,山东省,370000,济宁市,537,邹城市,370883,[],体育休闲服务;娱乐场所;网吧,"[{'title': [], 'url': 'http://store.is.autonavi.com/showpic/cd2d8945df58475c8be5e9b6fed75b2a'}, {'title': [], 'url': 'http://store.is.autonavi.com/showpic/ed99443a52f1b63a7472da2c22892131'}, {'title': [], 'url': 'http://store.is.autonavi.com/showpic/6fa9db86048d774b94848f0b3c81dec9'}]",2022-08-01T04:06:25,116.966516,35.400422,116.96094819054288,35.40078853730779,体育休闲服务,娱乐场所,网吧
161,B0IAT7UXW8,他的猫,岗山北路与科技路交叉口东北60米,山东省,370000,济宁市,537,邹城市,370883,[],体育休闲服务;休闲场所;休闲场所,"[{'title': [], 'url': 'http://store.is.autonavi.com/showpic/483d530f38ee115e26f69f164e159871'}]",2022-07-31T23:46:06,116.971488,35.410067,116.9659002948354,35.41041235669254,体育休闲服务,休闲场所,休闲场所
162,B0IDKZK5HL,囍.Xi酒吧,阜桥街道明珠社区红星东路83号,山东省,370000,济宁市,537,任城区,370811,15069794567,体育休闲服务;娱乐场所;酒吧,"[{'title': [], 'url': 'http://store.is.autonavi.com/showpic/be40c5ed91f93a2ce71af32047d91573'}]",2022-07-31T04:19:53,116.615582,35.414995,116.6102788352076,35.41543846209307,体育休闲服务,娱乐场所,酒吧
163,B0IAVCKB3P,紫薇甜瓜采摘园,马集镇沈河路路南,山东省,370000,济宁市,537,嘉祥县,370829,[],体育休闲服务;休闲场所;采摘园,[],2022-07-31T04:19:45,116.387908,35.343309,116.3821968404185,35.343459300548666,体育休闲服务,休闲场所,采摘园
164,B0IAVRLD15,新颖农家院,泉通路118号,山东省,370000,济宁市,537,泗水县,370831,[],体育休闲服务;休闲场所;休闲场所,[],2022-07-31T04:19:32,117.32615,35.655551,117.32014226972149,35.65555301492326,体育休闲服务,休闲场所,休闲场所
165,B0IDRZ7F47,颖禾垂钓园,太白西北段西村村南,山东省,370000,济宁市,537,任城区,370811,15753791111,体育休闲服务;休闲场所;垂钓园,[],2022-07-30T09:44:17,116.478065,35.401764,116.47248982511408,35.401977721705514,体育休闲服务,休闲场所,垂钓园
166,B0IAJSTRXA,红西纺织局tufting领略馆,红星西路乐购岛贮藏超市院内,山东省,370000,济宁市,537,任城区,370811,19953313161,体育休闲服务;体育休闲服务场所;体育休闲服务场所,[],2022-07-30T03:09:21,116.553955,35.417311,116.548621550408,35.41771745036122,体育休闲服务,体育休闲服务场所,体育休闲服务场所
167,B0IAJDW82X,梁山潮童平衡车俱乐部,山东省济宁市梁山县水泊街道天罡路郑垓村南10米路西(老杏花村),山东省,370000,济宁市,537,梁山县,370832,18765057661,体育休闲服务;体育休闲服务场所;体育休闲服务场所,[],2022-07-30T03:08:54,116.121614,35.784947,116.1157977641018,35.784832985475376,体育休闲服务,体育休闲服务场所,体育休闲服务场所
168,B0ID6Z0WK4,蚊子滑板俱乐部,体育公园足球场北连廊西首蚊子滑板俱乐部,山东省,370000,济宁市,537,邹城市,370883,17753712349;15554412349;18369751039,体育休闲服务;运动场馆;运动场所,"[{'title': [], 'url': 'http://store.is.autonavi.com/showpic/376c37195e80a73dfdf3e33926f4f5ca'}, {'title': [], 'url': 'http://store.is.autonavi.com/showpic/fd5923834d4bc972f842b4fd34166f07'}]",2022-07-30T03:08:54,116.980416,35.416062,116.97479208906292,35.41637744383634,体育休闲服务,运动场馆,运动场所
169,B0IAJR1UGS,喜来乐垂钓园,柳行办事处和济北路与虎标路丁字路南向东60米路西,山东省,370000,济宁市,537,任城区,370811,13964954182,体育休闲服务;休闲场所;垂钓园,"[{'title': [], 'url': 'http://store.is.autonavi.com/showpic/7dcdb828fb85dbbbaef6baa4cec411b8'}, {'title': [], 'url': 'http://store.is.autonavi.com/showpic/4a59230bc1d35865432429130acb852c'}, {'title': [], 'url': 'http://store.is.autonavi.com/showpic/87e4124477dfe4e75bd18968ebbc208f'}]",2022-07-30T03:08:48,116.68866,35.437666,116.68318943633388,35.437974374963574,体育休闲服务,休闲场所,垂钓园
170,B0IAJDX2G3,孚尼思儿童运动馆,弘道路5号3楼西北户,山东省,370000,济宁市,537,曲阜市,370881,15315182144,体育休闲服务;体育休闲服务场所;体育休闲服务场所,[],2022-07-30T03:08:40,116.998625,35.586014,116.99290641685452,35.58615505731042,体育休闲服务,体育休闲服务场所,体育休闲服务场所
171,B0IAVRMZWE,星8丁俊晖俱乐部,徐集商场超市北邻申通送货对过,山东省,370000,济宁市,537,梁山县,370832,[],体育休闲服务;运动场馆;台球厅,"[{'title': [], 'url': 'http://store.is.autonavi.com/showpic/b54ad6abfd5770869e3b6b1d64589b32'}]",2022-07-30T03:08:39,116.20981,35.687746,116.20421258520724,35.68781483024868,体育休闲服务,运动场馆,台球厅
172,B0IA15USFF,华庭游憩会所,龙欣然与玄帝庙街交叉口东100米,山东省,370000,济宁市,537,任城区,370811,[],体育休闲服务;体育休闲服务场所;体育休闲服务场所,"[{'title': [], 'url': 'http://store.is.autonavi.com/showpic/0b7d02bd40fddb3b595546060d1ad15c'}]",2022-07-29T20:28:28,116.575064,35.396345,116.56976645406762,35.39679956777254,体育休闲服务,体育休闲服务场所,体育休闲服务场所
173,B02190B3UM,幸福网咖,翰林学士名苑西北门南160米,山东省,370000,济宁市,537,金乡县,370828,15666079099,体育休闲服务;娱乐场所;网吧,"[{'title': [], 'url': 'http://store.is.autonavi.com/showpic/5fc6cd28151a640b9c6e198baf2ae12d'}, {'title': [], 'url': 'http://store.is.autonavi.com/showpic/339df6ca1b394c90806a03ae1fe7940e'}, {'title': [], 'url': 'http://store.is.autonavi.com/showpic/26a740b1d65af9b9aa16d9212a01ef68'}]",2022-07-29T17:40:11,116.319298,35.061478,116.31373312555324,35.06202301524367,体育休闲服务,娱乐场所,网吧
174,B0IA3SRN2O,misstop实景沉浸式密室逃脱(金乡诚信广场店),文峰路22-2圣都金街45号5,山东省,370000,济宁市,537,金乡县,370828,17686161225,体育休闲服务;娱乐场所;娱乐场所,[],2022-07-29T02:48:28,116.315196,35.070013,116.30963876138595,35.070556202399544,体育休闲服务,娱乐场所,娱乐场所
175,B0G2O6BPDG,荷花湾农家菜,康王桥附近,山东省,370000,济宁市,537,邹城市,370883,[],体育休闲服务;休闲场所;休闲场所,"[{'title': [], 'url': 'http://store.is.autonavi.com/showpic/5c748712110ec6ce4f22479ef7017e7f'}]",2022-07-28T16:20:33,117.42583,35.368306,117.4197266467289,35.368423099536166,体育休闲服务,休闲场所,休闲场所
176,B0IRXM2CX0,微山县微山岛镇老官井家境贫寒院,微子路19号,山东省,370000,济宁市,537,微山县,370826,[],体育休闲服务;休闲场所;休闲场所,"[{'title': [], 'url': 'http://store.is.autonavi.com/showpic/78db9719112497921707c7c8648f1965'}, {'title': [], 'url': 'http://store.is.autonavi.com/showpic/26182251af66d11bf31dce436a193c03'}, {'title': [], 'url': 'http://store.is.autonavi.com/showpic/09c33f880bb7c5a5aae87bc92306094b'}]",2022-07-28T15:08:35,117.255783,34.663416,117.2500186292731,34.66444219779151,体育休闲服务,休闲场所,休闲场所
177,B0H251PAU3,仁川病院,吾悦广场3楼3052-3053号商铺,山东省,370000,济宁市,537,任城区,370811,15151251558,体育休闲服务;娱乐场所;娱乐场所,"[{'title': [], 'url': 'http://store.is.autonavi.com/showpic/bb544fe12632980c086e62a7130ad960'}, {'title': [], 'url': 'http://store.is.autonavi.com/showpic/e1647180f4079241168762a7f5206fbe'}]",2022-07-28T14:31:04,116.598175,35.368439,116.59288912253982,35.36892879920975,体育休闲服务,娱乐场所,娱乐场所
178,B0GUMS6L98,金三角量贩式KTV,太黄线与邹两路交叉口北50米,山东省,370000,济宁市,537,邹城市,370883,15562354467,体育休闲服务;娱乐场所;KTV,"[{'title': [], 'url': 'http://store.is.autonavi.com/showpic/540165846f2b02b936f55413ca12d201'}]",2022-07-28T08:29:19,116.829895,35.222222,116.82442427369172,35.22275965764332,体育休闲服务,娱乐场所,KTV
179,B0IATUSYBI,烈焰足球足球俱乐部青训中心,邾国大道与龙泉大道交叉口西北500米,山东省,370000,济宁市,537,邹城市,370883,13793799249,体育休闲服务;运动场馆;足球场,"[{'title': [], 'url': 'http://store.is.autonavi.com/showpic/f4151215e7e22c1f2de510f1bc77e73e'}, {'title': [], 'url': 'http://store.is.autonavi.com/showpic/c40be2b2218f5adb30934d25a5acde05'}, {'title': [], 'url': 'http://store.is.autonavi.com/showpic/dd7fbf4e12acae8cc66f85d1056d3d9a'}]",2022-07-28T02:38:27,117.013613,35.395151,117.0078509573108,35.39538431243967,体育休闲服务,运动场馆,足球场
180,B0IA3DWHJQ,金瑜伽普拉提健身,韩垓镇韩垓村卫生室西南侧60米,山东省,370000,济宁市,537,梁山县,370832,[],体育休闲服务;运动场馆;健身中心,[],2022-07-28T02:38:23,116.291249,35.665436,116.28567376817564,35.665512547303564,体育休闲服务,运动场馆,健身中心
181,B0IAT7W6EF,济宁喻屯羊角蜜有机甜瓜采摘园,喻屯镇倪庄村,山东省,370000,济宁市,537,任城区,370811,15563167897,体育休闲服务;休闲场所;采摘园,[],2022-07-28T02:38:15,116.479259,35.207513,116.47370789224776,35.20791332343515,体育休闲服务,休闲场所,采摘园
182,B0IATSM8VK,渡口加驰垂钓园,古亭路53号,山东省,370000,济宁市,537,鱼台县,370827,[],体育休闲服务;休闲场所;垂钓园,[],2022-07-28T02:38:12,116.665477,35.050175,116.66010694330711,35.05091011925177,体育休闲服务,休闲场所,垂钓园
183,B0IA35XIP0,聊城任城区熊霸天手工工作室,阜桥街区太白路万达广场5号楼万泰商贸城6楼615号房,山东省,370000,济宁市,537,任城区,370811,[],体育休闲服务;休闲场所;休闲场所,"[{'title': [], 'url': 'http://store.is.autonavi.com/showpic/eb6a3c6f2ea950a35cf49ef38c3ba246'}, {'title': [], 'url': 'http://store.is.autonavi.com/showpic/f50d8a229dc4ad494512efd8830ed9fb'}, {'title': [], 'url': 'https://comment-oss-online.oss-cn-wulanchabu.aliyuncs.com/B0IA35XIP0/comment/content_media_external_images_media_387706_1653573850946_132e67b8.jpg'}]",2022-07-28T02:37:53,116.601617,35.410497,116.59632568474524,35.41095069636852,体育休闲服务,休闲场所,休闲场所
184,B0FFJO1ZBU,迪欣尼儿童主题公园城,金宇路亿丰黄金时代广场a区3层,山东省,370000,济宁市,537,任城区,370811,0537-2291177,体育休闲服务;休闲场所;游乐场,"[{'title': [], 'url': 'http://store.is.autonavi.com/showpic/9befbe43a9162fba454995fee789d6a0'}]",2022-07-27T15:50:10,116.571754,35.431142,116.56644923796205,35.43156446902795,体育休闲服务,休闲场所,游乐场
185,B0H2LU5LNJ,无趣手作所长,保利D座26楼2622室,山东省,370000,济宁市,537,任城区,370811,15662085866;16776989555,体育休闲服务;休闲场所;休闲场所,"[{'title': [], 'url': 'http://store.is.autonavi.com/showpic/0ae2bba024ba4fe37ceb64d75ed102f6'}, {'title': [], 'url': 'http://store.is.autonavi.com/showpic/d6ed63936192df3a1b703c6831fed468'}, {'title': [], 'url': 'http://store.is.autonavi.com/showpic/7065743157929550882ee2e86be6dce3'}]",2022-07-27T15:13:40,116.606556,35.410528,116.60126180250006,35.41098027406826,体育休闲服务,休闲场所,休闲场所
186,B0FFHQB0TA,华西网咖,青年路,山东省,370000,济宁市,537,泗水县,370831,[],体育休闲服务;娱乐场所;网吧,"[{'title': [], 'url': 'http://store.is.autonavi.com/showpic/08f989e244f037a2702b9bdaffc7f61f'}]",2022-07-27T14:40:22,117.270902,35.650611,117.26501673394507,35.65069885699371,体育休闲服务,娱乐场所,网吧
187,B0FFLC8O3T,曲阜市儒家舜和老年楼房,吧台往南100米路东,山东省,370000,济宁市,537,曲阜市,370881,13954711346;13954797646,体育休闲服务;度假疗养场所;疗养院,"[{'title': [], 'url': 'http://store.is.autonavi.com/showpic/deaef3e288d5530333ed7512a4c63ef4'}]",2022-07-27T13:53:03,117.004484,35.623518,116.99873630101952,35.6236198705793,体育休闲服务,度假疗养场所,疗养院
188,B0GKA6W3KM,艺馨音乐,文化一条街,山东省,370000,济宁市,537,兖州区,370812,[],体育休闲服务;娱乐场所;娱乐场所,"[{'title': [], 'url': 'http://store.is.autonavi.com/showpic/e07ce43fe6e9a539d2bcd3a5d74a0485'}, {'title': [], 'url': 'http://store.is.autonavi.com/showpic/5f1cee1c2b820ce4b461669ef42f2d17'}, {'title': [], 'url': 'http://store.is.autonavi.com/showpic/2be5230bf35c13338d110d212937eced'}]",2022-07-27T06:01:33,116.718208,35.455019,116.7126696867348,35.45526891290143,体育休闲服务,娱乐场所,娱乐场所
189,B0FFFF3VTC,康威体育,共青团路11-3号,山东省,370000,济宁市,537,任城区,370811,[],体育休闲服务;运动场馆;综合体育馆,"[{'title': [], 'url': 'http://store.is.autonavi.com/showpic/5684e857a310f9ed8809fb85'}, {'title': [], 'url': 'http://store.is.autonavi.com/showpic/5684e857a310f9ed8809fb88'}]",2022-07-27T04:21:52,116.587432,35.423492,116.58214022909593,35.42393319390103,体育休闲服务,运动场馆,综合体育馆
190,B0IAY712WT,奇点台球俱乐部,邹城市会展中心东侧,山东省,370000,济宁市,537,邹城市,370883,[],体育休闲服务;运动场馆;台球厅,"[{'title': [], 'url': 'http://store.is.autonavi.com/showpic/2bc90d98c848da155c8e59baf4fb2c4a'}, {'title': [], 'url': 'http://store.is.autonavi.com/showpic/d8bdb74f216779b01eecc05dbf5c26b9'}]",2022-07-27T04:01:08,117.055499,35.415648,117.04958282448396,35.4157591980242,体育休闲服务,运动场馆,台球厅
191,B0IATLW9D4,撞击台球俱乐部,泗河路与泉源大道交叉口东北120米,山东省,370000,济宁市,537,泗水县,370831,[],体育休闲服务;运动场馆;台球厅,"[{'title': [], 'url': 'http://store.is.autonavi.com/showpic/abd2cfe489f20a57fd577103c2558d2c'}]",2022-07-27T02:46:15,117.272744,35.65722,117.26685543666156,35.657302981591734,体育休闲服务,运动场馆,台球厅
192,B0IAFD7OAK,鱼台县天福农家院,鱼新三路实验中学西邻天福农家院,山东省,370000,济宁市,537,鱼台县,370827,15588726288;15154790999,体育休闲服务;休闲场所;休闲场所,"[{'title': [], 'url': 'http://store.is.autonavi.com/showpic/d584991ce9e785cd851fd4aa0ccb07f7'}]",2022-07-27T02:46:10,116.648825,34.989071,116.64350311374253,34.98990482319024,体育休闲服务,休闲场所,休闲场所
193,B0IAFLAFEU,织梦岛电玩vr,阜桥街道运河城a座1407,山东省,370000,济宁市,537,任城区,370811,[],体育休闲服务;体育休闲服务场所;体育休闲服务场所,[],2022-07-27T02:45:54,116.59022,35.407891,116.58493051308578,35.40834602812462,体育休闲服务,体育休闲服务场所,体育休闲服务场所
194,B0IA3ZSG5W,嗨造手作集合馆,西宾路中段,山东省,370000,济宁市,537,曲阜市,370881,[],体育休闲服务;休闲场所;休闲场所,"[{'title': [], 'url': 'http://store.is.autonavi.com/showpic/33317b1df32a296166dfdcbfdde0df5a'}, {'title': [], 'url': 'http://store.is.autonavi.com/showpic/adf86799bfddcf3d7422fc717f4012dc'}, {'title': [], 'url': 'http://store.is.autonavi.com/showpic/ca224097ad33c6440b37f6e8327b9ddf'}]",2022-07-27T02:45:53,116.971375,35.597777,116.96576809414022,35.597990749217,体育休闲服务,休闲场所,休闲场所
195,B0IAFHABB7,梁山县云鼎台球俱乐部,拳铺镇徐集供销社对过村委会二楼,山东省,370000,济宁市,537,梁山县,370832,[],体育休闲服务;运动场馆;台球厅,"[{'title': [], 'url': 'http://store.is.autonavi.com/showpic/352345ccae06fe4a82eb73322c8b1424'}, {'title': [], 'url': 'http://store.is.autonavi.com/showpic/8f6d23cc34180a35f395cf8eaad9ec5c'}, {'title': [], 'url': 'http://store.is.autonavi.com/showpic/b41784098ec2cfefcb2e8989ae4edf09'}]",2022-07-27T02:45:38,116.205786,35.68864,116.20018021814523,35.68870277697693,体育休闲服务,运动场馆,台球厅
196,B0FFL6XUJ5,明珠樱桃栽种园,京福线汉下村北,山东省,370000,济宁市,537,曲阜市,370881,[],体育休闲服务;休闲场所;采摘园,"[{'title': [], 'url': 'http://store.is.autonavi.com/showpic/65e61945a93ffdbb32c4510456b7a172'}, {'title': [], 'url': 'http://store.is.autonavi.com/showpic/5550d2b2022518ec43fb36e72ef5a436'}]",2022-07-27T02:45:36,117.036761,35.624285,117.03088304086684,35.624295099537605,体育休闲服务,休闲场所,采摘园
197,B0IALDW07I,蔡氏采摘园,237国道14号,山东省,370000,济宁市,537,任城区,370811,[],体育休闲服务;休闲场所;采摘园,[],2022-07-27T02:04:46,116.50916,35.202314,116.503715121118,35.20280814594353,体育休闲服务,休闲场所,采摘园
198,B0IA75BZ14,178棋牌娱乐会所,狄园街36-1号,山东省,370000,济宁市,537,任城区,370811,[],体育休闲服务;娱乐场所;棋牌室,[],2022-07-27T01:49:12,116.57598,35.397077,116.57068330467165,35.39753185461196,体育休闲服务,娱乐场所,棋牌室
199,B0IAODYW26,时光台球俱乐部,金泰华城上善若水东旁时光台球俱乐部,山东省,370000,济宁市,537,鱼台县,370827,15558415671,体育休闲服务;运动场馆;台球厅,"[{'title': [], 'url': 'http://store.is.autonavi.com/showpic/07a524ca4ed6d03927ebd08003c3cbec'}]",2022-07-27T01:45:46,116.638408,35.010068,116.63310735908748,35.010894995501424,体育休闲服务,运动场馆,台球厅
200,B0IAHU6QKI,好孝心中老年生活馆(任城店),半截阁街与建设路交叉口西40米,山东省,370000,济宁市,537,任城区,370811,[],体育休闲服务;休闲场所;休闲场所,[],2022-07-26T21:28:40,116.596241,35.409548,116.590951415692,35.4100028064761,体育休闲服务,休闲场所,休闲场所
201,B0FFGGTD8V,儿童游乐店(万达广场济宁太白路店),太白东路55号济宁太白路万达广场F3,山东省,370000,济宁市,537,任城区,370811,[],体育休闲服务;娱乐场所;娱乐场所,"[{'title': [], 'url': 'http://store.is.autonavi.com/showpic/e2601d5edfc75fdc42af5910c77fda29'}, {'title': [], 'url': 'http://store.is.autonavi.com/showpic/f7c17414f9a5bf9f6cd9dbfd34acf31b'}, {'title': [], 'url': 'http://store.is.autonavi.com/showpic/3d4642291f97c987f433cbfe0ab8c8d2'}]",2022-07-26T19:48:54,116.603862,35.408408,116.5985697462696,35.408862913723695,体育休闲服务,娱乐场所,娱乐场所
202,B0IALSSWYM,瑞雅瑜伽工作室,金城路与文化路交叉口西北角,山东省,370000,济宁市,537,金乡县,370828,13371252789,体育休闲服务;运动场馆;健身中心,"[{'title': [], 'url': 'http://store.is.autonavi.com/showpic/a333f76d9422bc143f73c7e038f03a13'}, {'title': [], 'url': 'http://store.is.autonavi.com/showpic/21eceab5f754881cc7c73b509257f6fc'}]",2022-07-26T19:30:44,116.319133,35.058563,116.31356876919529,35.059111569820615,体育休闲服务,运动场馆,健身中心
203,B0FFF9JIEK,堂会棋牌室(兴唐·经典东),兴唐·精华北门旁,山东省,370000,济宁市,537,任城区,370811,13165376588,体育休闲服务;娱乐场所;棋牌室,"[{'title': [], 'url': 'http://store.is.autonavi.com/showpic/3e2c390faba50a4f95b1bd4be641e897'}, {'title': [], 'url': 'http://store.is.autonavi.com/showpic/602c357e3400ad26c071dfda3ede148c'}, {'title': [], 'url': 'http://store.is.autonavi.com/showpic/04cf2e4392523d471ab3c0473ad451f1'}]",2022-07-26T12:48:32,116.56806,35.423422,116.56275114153492,35.42384611614221,体育休闲服务,娱乐场所,棋牌室
204,B0IA3AOMEO,汶上县莫小城精酿啤酒馆,莫小城精葡萄馆黄金水岸北门,山东省,370000,济宁市,537,汶上县,370830,[],体育休闲服务;娱乐场所;酒吧,"[{'title': [], 'url': 'http://store.is.autonavi.com/showpic/e2461c13c54a5ef35a0db456fe4853ce'}]",2022-07-26T02:26:36,116.480167,35.719579,116.4745658940738,35.71959864959156,体育休闲服务,娱乐场所,酒吧
205,B0IA277QXU,蓝夜·CLUB,建设北路12号银泰广场A115全季酒店北临,山东省,370000,济宁市,537,嘉祥县,370829,0537-6609990,体育休闲服务;娱乐场所;酒吧,"[{'title': [], 'url': 'http://store.is.autonavi.com/showpic/23d4e81a28816b701acb089dcf959761'}]",2022-07-26T02:26:29,116.337399,35.425453,116.33175785880852,35.42560301428367,体育休闲服务,娱乐场所,酒吧
206,B0IRDNJ6W6,邹城市贰伍捌餐饮馆,钢山街区军民路79号,山东省,370000,济宁市,537,邹城市,370883,18853792926,体育休闲服务;娱乐场所;酒吧,"[{'title': [], 'url': 'http://store.is.autonavi.com/showpic/e4849536ebb977160d9b832d030cb35c'}, {'title': [], 'url': 'http://store.is.autonavi.com/showpic/101f7246d9bb906fda3e4bbf6cb4bfd0'}, {'title': [], 'url': 'http://store.is.autonavi.com/showpic/deb0448d1d37d7f246ce5fa5fe7cb548'}]",2022-07-26T00:20:37,116.985684,35.416843,116.98003823696423,35.41714242788786,体育休闲服务,娱乐场所,酒吧
207,B0G0L1JX73,娱乐会所KTV,042县道与244省道交叉口西北420米,山东省,370000,济宁市,537,嘉祥县,370829,[],体育休闲服务;娱乐场所;KTV,[],2022-07-25T23:27:33,116.313967,35.207612,116.30839818251158,35.20800899092587,体育休闲服务,娱乐场所,KTV
208,B0FFFE9YPS,金尖角室内泳池,北环路口向西50米二路门票10元/人,山东省,370000,济宁市,537,梁山县,370832,[],体育休闲服务;运动场馆;游泳馆,[],2022-07-25T23:08:04,116.100757,35.831355,116.09491325505252,35.83121400218024,体育休闲服务,运动场馆,游泳馆
209,B0FFIAK0OF,游乐电瓶碰碰车,水浒文化广场,山东省,370000,济宁市,537,梁山县,370832,15963783359,体育休闲服务;休闲场所;游乐场,"[{'title': [], 'url': 'http://store.is.autonavi.com/showpic/062c595bf0c9bdbe95b2e904082b286e'}, {'title': [], 'url': 'http://store.is.autonavi.com/showpic/c542a73742183297aa95e32fbebde2c5'}, {'title': [], 'url': 'http://store.is.autonavi.com/showpic/b42388bce0a3f01178f62f10651c0ac6'}]",2022-07-25T22:59:21,116.094137,35.788882,116.08829527265436,35.788755757708,体育休闲服务,休闲场所,游乐场
210,B0FFIQWES9,力得国际锻炼身体(星河湾店),萌小路与呈祥大道交叉口东100米,山东省,370000,济宁市,537,嘉祥县,370829,[],体育休闲服务;体育休闲服务场所;体育休闲服务场所,[],2022-07-25T22:35:39,116.358477,35.408199,116.35279595665628,35.40832622943882,体育休闲服务,体育休闲服务场所,体育休闲服务场所
211,B0G3119GKN,兖州区兴隆中老年公寓,文化东路73号,山东省,370000,济宁市,537,兖州区,370812,[],体育休闲服务;度假疗养场所;疗养院,[],2022-07-25T14:28:04,116.83188,35.5608,116.82637803342898,35.56105677228494,体育休闲服务,度假疗养场所,疗养院
212,B0G1FHMGWW,中海城游泳健身,电化路中海城地下一层,山东省,370000,济宁市,537,任城区,370811,[],体育休闲服务;运动场馆;游泳馆,[],2022-07-25T14:25:18,116.549258,35.408979,116.54391481752536,35.409383025429435,体育休闲服务,运动场馆,游泳馆
213,B0IAXA0EFQ,鱼台众莱游泳健身,鱼台县滨湖街道工业路南首消防队188米路西,山东省,370000,济宁市,537,鱼台县,370827,[],体育休闲服务;运动场馆;健身中心,[],2022-07-25T02:59:06,116.625326,34.990875,116.62005152058336,34.991740480361855,体育休闲服务,运动场馆,健身中心
214,B0IAXC1HJ1,战云台球娱乐俱乐部,张黄镇镇政府南28米路东,山东省,370000,济宁市,537,鱼台县,370827,18375479608,体育休闲服务;运动场馆;台球厅,[],2022-07-25T02:57:49,116.584262,35.126115,116.5789984904832,35.12684232303185,体育休闲服务,运动场馆,台球厅
215,B0IAX51GX8,乐境攀岩(济州上城店),济州上城2楼西首,山东省,370000,济宁市,537,任城区,370811,15205372929,体育休闲服务;运动场馆;运动场所,"[{'title': [], 'url': 'http://store.is.autonavi.com/showpic/73600308895234662022cf89e0985c1b'}, {'title': [], 'url': 'http://store.is.autonavi.com/showpic/836354ff6bae0a90a0cb96a870c517fb'}, {'title': [], 'url': 'http://store.is.autonavi.com/showpic/ed63cee5fd1e50da5ea688596d11f100'}]",2022-07-25T02:57:26,116.619015,35.396166,116.6137094355812,35.396622303785584,体育休闲服务,运动场馆,运动场所
216,B0IUD5FLGC,嘉祥县智趣童话儿童溜冰场(嘉祥正信购物广场店),获麟街175号,山东省,370000,济宁市,537,嘉祥县,370829,17564262718,体育休闲服务;休闲场所;游乐场,[],2022-07-24T22:58:45,116.336814,35.401055,116.33117664610768,35.401226129244925,体育休闲服务,休闲场所,游乐场
217,B0FFM94R88,金宇之夏水上乐园(暂停营业),金乡街道金宇大酒店,山东省,370000,济宁市,537,金乡县,370828,[],体育休闲服务;休闲场所;水上活动中心,[],2022-07-24T21:53:21,116.322848,35.050053,116.3172767969114,35.05060400409138,体育休闲服务,休闲场所,水上活动中心
218,B0FFFE4QTC,夕阳红老年公寓,静轩东路新宇房地产开发有限责任公司,山东省,370000,济宁市,537,曲阜市,370881,[],体育休闲服务;度假疗养场所;疗养院,"[{'title': [], 'url': 'http://store.is.autonavi.com/showpic/e9ed71262aaca4688fd4c27e368c9b24'}]",2022-07-24T16:10:39,117.036667,35.597836,117.03079225088298,35.597861207999344,体育休闲服务,度假疗养场所,疗养院
219,B0IAX72JS3,愉意·瑜伽,公明大道与水泊东路交叉口东北180米,山东省,370000,济宁市,537,梁山县,370832,[],体育休闲服务;运动场馆;健身中心,[],2022-07-24T02:28:56,116.098855,35.806615,116.0930129467688,35.806482126159494,体育休闲服务,运动场馆,健身中心
220,B0IAXU2C0L,闲会所,凤园路与交通路交叉口西北500米,山东省,370000,济宁市,537,梁山县,370832,[],体育休闲服务;体育休闲服务场所;体育休闲服务场所,[],2022-07-24T02:28:55,116.07778,35.801765,116.07194075468529,35.801643270551864,体育休闲服务,体育休闲服务场所,体育休闲服务场所
221,B0IATSNQC1,午夜星辰,东岳东路与东岳路交叉口西南500米,山东省,370000,济宁市,537,梁山县,370832,[],体育休闲服务;运动场馆;台球厅,"[{'title': [], 'url': 'http://store.is.autonavi.com/showpic/21c30864158da29dccfe94716c622689'}]",2022-07-24T02:28:41,116.120649,35.695563,116.1148408472197,35.695484688836984,体育休闲服务,运动场馆,台球厅
222,B0IAGS5U2D,云逍电竞,酒仙桥北路与花园街交叉口东北20米,山东省,370000,济宁市,537,兖州区,370812,[],体育休闲服务;娱乐场所;网吧,"[{'title': [], 'url': 'https://aos-comment.amap.com/B0IAGS5U2D/headerImg/content_media_external_images_media_65691_1657949799602_0b0bc658.jpg'}, {'title': [], 'url': 'https://aos-comment.amap.com/B0IAGS5U2D/headerImg/content_media_external_images_media_65692_1657949799603_3572b934.jpg'}, {'title': [], 'url': 'https://aos-comment.amap.com/B0IAGS5U2D/headerImg/content_media_external_images_media_65690_1657949799602_9171b37b.jpg'}]",2022-07-24T02:28:40,116.839016,35.553993,116.83352733575592,35.55426732449758,体育休闲服务,娱乐场所,网吧
223,B0FFIB7BV5,康体运动工作室,水街上岛咖啡后面,山东省,370000,济宁市,537,泗水县,370831,[],体育休闲服务;运动场馆;健身中心,[],2022-07-23T14:03:16,117.259163,35.666936,117.25328899712126,35.66702245285477,体育休闲服务,运动场馆,健身中心
224,B0GRJ7OPG6,钰奇瑜伽,凤凰城C区38号楼104门面1-2层,山东省,370000,济宁市,537,任城区,370811,15275750237,体育休闲服务;运动场馆;健身中心,"[{'title': [], 'url': 'http://aos-cdn-image.amap.com/sns/ugccomment/5f5a36bc-c63a-4ee9-b928-cb33e2239f90.jpg'}]",2022-07-23T13:30:48,116.565901,35.386858,116.5605926214538,35.3873095550206,体育休闲服务,运动场馆,健身中心
225,B0FFIAHS79,老季小麦采摘园,文昌路与杏坛路交口南580米,山东省,370000,济宁市,537,曲阜市,370881,15854739168,体育休闲服务;体育休闲服务场所;体育休闲服务场所,"[{'title': [], 'url': 'http://store.is.autonavi.com/showpic/a5b693f3506bf98b34a90848740e53e7'}, {'title': [], 'url': 'http://store.is.autonavi.com/showpic/e1e9bfa7668374ad8894fae30532144c'}, {'title': [], 'url': 'http://store.is.autonavi.com/showpic/eaffc0185397aff9b13ce786e9a62b84'}]",2022-07-23T13:02:50,116.96317,35.540795,116.9575998519482,35.541065248586314,体育休闲服务,体育休闲服务场所,体育休闲服务场所
226,B0IAMUM5SO,冉手工创意工作室,天圳四季城8095,山东省,370000,济宁市,537,任城区,370811,17660187558,体育休闲服务;休闲场所;休闲场所,"[{'title': [], 'url': 'http://store.is.autonavi.com/showpic/c7d923ac92b9fbafce7c3efc38bd0c42'}]",2022-07-23T09:27:47,116.613926,35.429533,116.6086232441348,35.4299658840315,体育休闲服务,休闲场所,休闲场所
227,B0IA9ZLLBR,DIY儿童益智乐园(康中花园店),康驿镇康中花园,山东省,370000,济宁市,537,汶上县,370830,15020765257,体育休闲服务;休闲场所;游乐场,[],2022-07-22T03:09:07,116.519436,35.567952,116.51398939667644,35.568166554346696,体育休闲服务,休闲场所,游乐场
228,B0HA6450FG,启兴活动板房,237国道东侧,山东省,370000,济宁市,537,任城区,370811,15206477225,体育休闲服务;体育休闲服务场所;体育休闲服务场所,[],2022-07-21T16:28:33,116.552793,35.330909,116.54746571379316,35.33138824115743,体育休闲服务,体育休闲服务场所,体育休闲服务场所
229,B0IA3ZRKX6,自然烧烤城,广伟路与恒威路交叉中山路西北侧,山东省,370000,济宁市,537,任城区,370811,19953787979,体育休闲服务;休闲场所;休闲场所,"[{'title': [], 'url': 'http://store.is.autonavi.com/showpic/364d22e0eb6a1947de23942c06c7c028'}]",2022-07-21T15:15:33,116.618255,35.389455,116.6129511055728,35.38991763659943,体育休闲服务,休闲场所,休闲场所
230,B0IAM7PJ07,尚辉台球俱乐部,寿张集卫生院南20米路西,山东省,370000,济宁市,537,梁山县,370832,13475775790,体育休闲服务;运动场馆;台球厅,"[{'title': [], 'url': 'http://store.is.autonavi.com/showpic/f7db9ff3bf5f031e504a789431437a51'}]",2022-07-21T13:41:52,116.054088,35.864865,116.04827286431237,35.86475692953087,体育休闲服务,运动场馆,台球厅
231,B0IAY70255,拾光手作工坊,圣泽商业街76号,山东省,370000,济宁市,537,汶上县,370830,15554406636,体育休闲服务;休闲场所;休闲场所,"[{'title': [], 'url': 'http://store.is.autonavi.com/showpic/f92b73de00ee7055ecea027b840c0447'}]",2022-07-21T12:52:44,116.492412,35.720413,116.48685394116345,35.72046802298521,体育休闲服务,休闲场所,休闲场所
232,B0IUYSD70H,英伦台球足球俱乐部(金城路店),金城路与水泊前门交叉口西北100米,山东省,370000,济宁市,537,梁山县,370832,[],体育休闲服务;运动场馆;台球厅,[],2022-07-21T01:04:12,116.081339,35.791623,116.0754987600514,35.79150184886968,体育休闲服务,运动场馆,台球厅
233,B0FFKG2UCR,山东育航体育放飞梦想综合训练馆,邾国大道与礼乐路交叉口西360米,山东省,370000,济宁市,537,邹城市,370883,[],体育休闲服务;运动场馆;综合体育馆,"[{'title': [], 'url': 'http://store.is.autonavi.com/showpic/1fcb2bebea895dac434274234d2a0193'}]",2022-07-21T00:46:32,117.02155,35.422219,117.01575237809084,35.42240684963537,体育休闲服务,运动场馆,综合体育馆
234,B0IAPAPMEI,慕尼黑啤酒屋,吕垭口小学北100米,山东省,370000,济宁市,537,梁山县,370832,[],体育休闲服务;娱乐场所;酒吧,"[{'title': [], 'url': 'https://comment-oss-online.oss-cn-wulanchabu.aliyuncs.com/B0IAPAPMEI/comment/content_media_external_images_media_16679_1652697657628_88c0df45.jpg'}, {'title': [], 'url': 'https://comment-oss-online.oss-cn-wulanchabu.aliyuncs.com/B0IAPAPMEI/comment/content_media_external_images_media_16677_1652697657629_39657738.jpg'}, {'title': [], 'url': 'https://comment-oss-online.oss-cn-wulanchabu.aliyuncs.com/B0IAPAPMEI/comment/content_media_external_images_media_16676_1652697657630_901f546b.jpg'}]",2022-07-20T19:47:33,116.089354,35.813151,116.08350928105364,35.81301769999277,体育休闲服务,娱乐场所,酒吧
235,B0FFKQ1FTZ,曲阜失恋博物馆,西首路,山东省,370000,济宁市,537,曲阜市,370881,[],体育休闲服务;体育休闲服务场所;体育休闲服务场所,"[{'title': [], 'url': 'http://store.is.autonavi.com/showpic/7744a35963baa1a43ad8cb6a90184318'}, {'title': [], 'url': 'http://store.is.autonavi.com/showpic/bc5615f13e66a436ed706f56c655fb60'}, {'title': [], 'url': 'http://store.is.autonavi.com/showpic/ac5104880eff26b76cb6fbee79e38619'}]",2022-07-20T15:05:07,116.994541,35.594511,116.98883900146386,35.59465944051937,体育休闲服务,体育休闲服务场所,体育休闲服务场所
236,B0H01UQL2T,2平米智慧学习桌(济州上城店),济州上城2楼,山东省,370000,济宁市,537,任城区,370811,15215470889;17854787557,体育休闲服务;休闲场所;游乐场,"[{'title': [], 'url': 'http://store.is.autonavi.com/showpic/4e2a41d3ecd42a47c454aaffaa7193bc'}, {'title': [], 'url': 'http://store.is.autonavi.com/showpic/097d7d6647a2716ea8bb00720733d630'}, {'title': [], 'url': 'http://store.is.autonavi.com/showpic/e80face3fa2a1442906cd0820d477912'}]",2022-07-20T14:28:45,116.620252,35.395792,116.6149447934416,35.39624750688475,体育休闲服务,休闲场所,游乐场
237,B0IAR78PY6,童言物语手工DIY,中御桥北路百意购物中心4楼,山东省,370000,济宁市,537,兖州区,370812,18754758104,体育休闲服务;休闲场所;休闲场所,"[{'title': [], 'url': 'http://store.is.autonavi.com/showpic/c20505af00346f654c09babc3ef5396b'}]",2022-07-20T03:43:48,116.828405,35.552944,116.82289760868224,35.55319921884859,体育休闲服务,休闲场所,休闲场所
238,B0IASMDO70,心上人生态垂钓园,狄楼村加油站对过,山东省,370000,济宁市,537,嘉祥县,370829,[],体育休闲服务;休闲场所;垂钓园,"[{'title': [], 'url': 'http://store.is.autonavi.com/showpic/1d388c117d18083396f7010772192928'}, {'title': [], 'url': 'http://store.is.autonavi.com/showpic/6426f611efe2bfcd7ae08bf5689524c5'}]",2022-07-20T02:31:01,116.364887,35.486492,116.35918703287986,35.48654894915054,体育休闲服务,休闲场所,垂钓园
239,B0IANSILGK,玖7台球俱乐部,天一超市南,山东省,370000,济宁市,537,嘉祥县,370829,17684578885,体育休闲服务;运动场馆;台球厅,"[{'title': [], 'url': 'https://comment-oss-online.oss-cn-wulanchabu.aliyuncs.com/B0IANSILGK/comment/1648968813282_temp_1648968815480_d2adf759.jpg'}, {'title': [], 'url': 'https://comment-oss-online.oss-cn-wulanchabu.aliyuncs.com/B0IANSILGK/comment/1648968822543_temp_1648968823829_f1707ba8.jpg'}, {'title': [], 'url': 'https://comment-oss-online.oss-cn-wulanchabu.aliyuncs.com/B0IANSILGK/comment/1648968835798_temp_1648968837092_74798208.jpg'}]",2022-07-20T02:18:40,116.346056,35.394896,116.34040001361376,35.39505525243066,体育休闲服务,运动场馆,台球厅
240,B0IAG5A2P9,梁山拳击手篮球俱乐部,第五试验小学南100米(上善若水东50米),山东省,370000,济宁市,537,梁山县,370832,[],体育休闲服务;运动场馆;篮球场馆,"[{'title': [], 'url': 'http://store.is.autonavi.com/showpic/16581516356b1f84ebca476e4a457c36'}, {'title': [], 'url': 'https://aos-comment.amap.com/B0IAG5A2P9/comment/content_media_external_images_media_167670_1657267703929_23bfca7c.jpg'}]",2022-07-20T02:06:42,116.090604,35.779703,116.0847628595702,35.77958104271341,体育休闲服务,运动场馆,篮球场馆
241,B0IAA7AG0B,万客隆甜瓜采摘园,嘉祥县机场东高庄村,山东省,370000,济宁市,537,嘉祥县,370829,13853764764,体育休闲服务;休闲场所;采摘园,"[{'title': [], 'url': 'http://store.is.autonavi.com/showpic/e18237b96f80e01a4b6b820080323f3d'}, {'title': [], 'url': 'http://store.is.autonavi.com/showpic/e803d63b42b8aeedc4f75b6018465451'}, {'title': [], 'url': 'http://aos-cdn-image.amap.com/sns/ugccomment/ce98fcf1-7170-46eb-85f0-43389a8e554e.jpg'}]",2022-07-20T02:05:21,116.372433,35.293461,116.36674237365555,35.29367170499619,体育休闲服务,休闲场所,采摘园
242,B0FFHNTB7K,六分田乡下院,西路与兖兰东路交叉口北180米,山东省,370000,济宁市,537,嘉祥县,370829,0537-6670888;15153736888,餐饮服务;中餐厅;中餐厅|体育休闲服务;休闲场所;休闲场所,"[{'title': [], 'url': 'http://aos-cdn-image.amap.com/sns/ugccomment/1020c364-0168-4d80-9e66-e52db39a6444.JPG'}, {'title': [], 'url': 'http://aos-cdn-image.amap.com/sns/ugccomment/bfe1761e-e0d4-42f9-92e5-155a7be1c2a9.JPG'}]",2022-07-19T20:21:34,116.380983,35.398161,116.37527167250168,35.398268620834976,体育休闲服务,休闲场所,休闲场所
243,B0IA7UF8PG,非常排球健身,中德广场A座2409,山东省,370000,济宁市,537,任城区,370811,17562149895,体育休闲服务;运动场馆;健身中心,"[{'title': [], 'url': 'http://store.is.autonavi.com/showpic/c94b9471003f18ab53e798fa32278c9d'}, {'title': [], 'url': 'https://aos-comment.amap.com/B0IA7UF8PG/headerImg/content_media_external_images_media_832258_1656151511730_53732051.jpg'}, {'title': [], 'url': 'https://aos-comment.amap.com/B0IA7UF8PG/headerImg/content_media_external_images_media_832275_1656151511723_afc4bd18.jpg'}]",2022-07-19T02:53:52,116.612098,35.441541,116.60679594484824,35.44196555572096,体育休闲服务,运动场馆,健身中心
244,B0HBX6LUYQ,碳水化合物俱乐部,崇义路红星建材彩绘城,山东省,370000,济宁市,537,邹城市,370883,[],体育休闲服务;运动场馆;运动场所,[],2022-07-18T21:19:14,117.011321,35.417967,117.0055661546223,35.41818820923266,体育休闲服务,运动场馆,运动场所
245,B0GK27KMKG,正牌棋室,税务街111西南50米,山东省,370000,济宁市,537,任城区,370811,[],体育休闲服务;娱乐场所;娱乐场所,[],2022-07-18T21:06:24,116.576604,35.403261,116.57130728786132,35.4037112728993,体育休闲服务,娱乐场所,娱乐场所
246,B0IRSREAQ7,十禾侦探社(金都购物广场店),金城东路和奎星路相连处金都购物广场5楼东侧,山东省,370000,济宁市,537,金乡县,370828,15646733575,体育休闲服务;体育休闲服务场所;体育休闲服务场所,[],2022-07-18T20:33:43,116.315133,35.057463,116.30957717167496,35.05802027125123,体育休闲服务,体育休闲服务场所,体育休闲服务场所
247,B0FFIWHAHT,小神童游乐,操守购物有限公司一楼,山东省,370000,济宁市,537,金乡县,370828,[],体育休闲服务;休闲场所;游乐场,"[{'title': [], 'url': 'http://store.is.autonavi.com/showpic/b53fc0c98472d63dc2f3a6f22a90b913'}]",2022-07-18T19:15:27,116.316636,35.070723,116.31107572472384,35.0712627376568,体育休闲服务,休闲场所,游乐场
248,B0FFK9JSL4,yoyo抖音吧,水泊街道人民北路40号龙城广场b座,山东省,370000,济宁市,537,梁山县,370832,15269829028,体育休闲服务;娱乐场所;酒吧,[],2022-07-17T14:31:49,116.098929,35.806022,116.09308704486304,35.80588933179492,体育休闲服务,娱乐场所,酒吧
249,B0FFH2NDPO,奇幻城堡(百货大楼太平西路店),太平西路1288号百货大楼F3,山东省,370000,济宁市,537,邹城市,370883,[],体育休闲服务;娱乐场所;娱乐场所,[],2022-07-16T18:32:11,116.970301,35.405345,116.96471836369264,35.405697463325424,体育休闲服务,娱乐场所,娱乐场所
250,B0IA57CDAT,邹城市第四老年公寓,峄山镇店北村,山东省,370000,济宁市,537,邹城市,370883,[],体育休闲服务;度假疗养场所;疗养院,"[{'title': [], 'url': 'http://store.is.autonavi.com/showpic/2be5aa49b4c9d6d93a857fee00f659de'}]",2022-07-16T03:55:35,116.997969,35.302391,116.99228322284362,35.302754811947395,体育休闲服务,度假疗养场所,疗养院
251,B0IA57FWA7,全民游泳健身中心,湖凌二路与北环路交汇处南西188米,山东省,370000,济宁市,537,鱼台县,370827,[],体育休闲服务;运动场馆;游泳馆,"[{'title': [], 'url': 'http://store.is.autonavi.com/showpic/cc8f2f12d028bb8233e497d517ed7528'}]",2022-07-16T03:51:26,116.648445,35.024606,116.64312048114763,35.025400681015384,体育休闲服务,运动场馆,游泳馆
252,B0FFHNF9NW,疯狂的夜店,货场路中段,山东省,370000,济宁市,537,邹城市,370883,[],体育休闲服务;体育休闲服务场所;体育休闲服务场所,"[{'title': [], 'url': 'http://store.is.autonavi.com/showpic/3b936f83545fdba44943b9c57e4a929b'}]",2022-07-14T13:29:48,116.955411,35.406117,116.9498817819105,35.40650574418809,体育休闲服务,体育休闲服务场所,体育休闲服务场所
253,B0IAPAOKP4,爱麻仕国粹研究院,获麟街与建设路交叉口路南60米,山东省,370000,济宁市,537,嘉祥县,370829,14763709111,体育休闲服务;娱乐场所;棋牌室,"[{'title': [], 'url': 'http://store.is.autonavi.com/showpic/1ff89b03b4dd9d95e573cbcccd358bb9'}, {'title': [], 'url': 'http://store.is.autonavi.com/showpic/791dd118747cd58589e016bbbd52ff34'}]",2022-07-14T11:22:49,116.338657,35.399392,116.33301590418792,35.39956105464427,体育休闲服务,娱乐场所,棋牌室
254,B0FFFWAR85,暗淡网吧(马村镇综治维稳工作中心南),马村镇马东村,山东省,370000,济宁市,537,嘉祥县,370829,15689777019,体育休闲服务;娱乐场所;网吧,"[{'title': [], 'url': 'http://store.is.autonavi.com/showpic/86d75568575850b68993edb23e93bf43'}, {'title': [], 'url': 'http://store.is.autonavi.com/showpic/99fedad7fd5ee9db8d8a86fda72a18a3'}]",2022-07-14T08:16:22,116.279857,35.494724,116.27431417868937,35.49491772312677,体育休闲服务,娱乐场所,网吧
255,B0IADZTZ9E,带TA抓公仔,银泰广场一楼E110,山东省,370000,济宁市,537,嘉祥县,370829,[],体育休闲服务;娱乐场所;娱乐场所,"[{'title': [], 'url': 'http://store.is.autonavi.com/showpic/ddafc725d15328a7bc590d4236040f4c'}]",2022-07-13T07:59:42,116.337566,35.42704,116.33192433816076,35.42718842423141,体育休闲服务,娱乐场所,娱乐场所
256,B0IAGM21NQ,薛萌采摘园,金屯镇薛庄村,山东省,370000,济宁市,537,嘉祥县,370829,[],体育休闲服务;休闲场所;采摘园,"[{'title': [], 'url': 'http://store.is.autonavi.com/showpic/61f3f8662fc81a3cc89b48aeafd29236'}, {'title': [], 'url': 'http://store.is.autonavi.com/showpic/ca744c3bede411314981df2cc3f964f4'}]",2022-07-09T08:54:37,116.393654,35.2993,116.38794451519614,35.29948833248823,体育休闲服务,休闲场所,采摘园
257,B0IAP5POTV,泗河垂钓园东园,小疃垂钓园西北侧200米,山东省,370000,济宁市,537,兖州区,370812,18354743888,体育休闲服务;休闲场所;垂钓园,[],2022-07-09T07:04:02,116.832048,35.457961,116.82655695040832,35.45828962579805,体育休闲服务,休闲场所,垂钓园
258,B0IAPHO77F,懒猫DIY手工制作,阜桥街道太白路万达广场17号楼东单元十四层1417号房,山东省,370000,济宁市,537,任城区,370811,13355476522,体育休闲服务;休闲场所;休闲场所,"[{'title': [], 'url': 'http://store.is.autonavi.com/showpic/1a630d4427dfb1694fc432b015249ab8'}, {'title': [], 'url': 'http://store.is.autonavi.com/showpic/04056fc07267baead5db577260b6d146'}, {'title': [], 'url': 'http://store.is.autonavi.com/showpic/20bdcfdcd4d4251c5be161148a6774e7'}]",2022-07-05T08:43:20,116.60451,35.408028,116.59921740294466,35.40848304176763,体育休闲服务,休闲场所,休闲场所
259,B0FFKG3DZ8,益乐堡儿童迪士尼,皇家贝贝幼儿园西门旁,山东省,370000,济宁市,537,邹城市,370883,[],体育休闲服务;休闲场所;游乐场,"[{'title': [], 'url': 'http://store.is.autonavi.com/showpic/d116e24cd846101b050df84966937e11'}]",2022-07-02T10:22:09,117.005004,35.419629,116.99927578425024,35.41986786972082,体育休闲服务,休闲场所,游乐场
260,B0FFI2GOOR,郭楼镇敬老院,郭楼镇,山东省,370000,济宁市,537,汶上县,370830,[],体育休闲服务;度假疗养场所;疗养院,[],2022-07-02T02:31:13,116.35477,35.786443,116.34905578516458,35.78635507095319,体育休闲服务,度假疗养场所,疗养院
261,B0IAFC9BKL,复古小酒吧,琵琶山路与刘庄南路交叉口东北80米,山东省,370000,济宁市,537,任城区,370811,[],体育休闲服务;娱乐场所;酒吧,[],2022-07-02T02:30:13,116.606267,35.409245,116.6009731350902,35.40969844231241,体育休闲服务,娱乐场所,酒吧
262,B0G1HMIL4X,李府农家院,西大庙村106和,山东省,370000,济宁市,537,梁山县,370832,15901467892,体育休闲服务;体育休闲服务场所;体育休闲服务场所,[],2022-07-02T02:29:29,116.232218,35.699221,116.22665448008264,35.69930723625421,体育休闲服务,体育休闲服务场所,体育休闲服务场所
263,B0HGMSXDE2,东旭跆拳道道馆,公明大道与水泊东路交叉口东约120米,山东省,370000,济宁市,537,梁山县,370832,[],体育休闲服务;运动场馆;跆拳道场馆,[],2022-07-02T02:20:04,116.099198,35.805158,116.0933562648557,35.80502563750356,体育休闲服务,运动场馆,跆拳道场馆
264,B0H3DCTT29,崇尚道馆,春秋路水云台,山东省,370000,济宁市,537,金乡县,370828,[],体育休闲服务;运动场馆;运动场所,[],2022-07-02T02:20:00,116.328702,35.068118,116.32311642896056,35.06863769880071,体育休闲服务,运动场馆,运动场所
265,B0IA3ODDCF,博力跆拳道,矿建东路与文圣路交叉口东南40米,山东省,370000,济宁市,537,邹城市,370883,[],体育休闲服务;运动场馆;跆拳道场馆,[],2022-07-02T02:19:44,116.942387,35.401811,116.93689774972611,35.4022297005039,体育休闲服务,运动场馆,跆拳道场馆
266,B0GKYZIHTZ,行行竞技垂钓园,老砦镇义和村附近,山东省,370000,济宁市,537,鱼台县,370827,[],体育休闲服务;休闲场所;垂钓园,"[{'title': [], 'url': 'http://store.is.autonavi.com/showpic/4b89c56dac2a160a5618c5ef57776e76'}, {'title': [], 'url': 'http://store.is.autonavi.com/showpic/2ba511a1e69e1d14ea79ead412c8bb2f'}, {'title': [], 'url': 'http://store.is.autonavi.com/showpic/223300653c58031779cd33c0edc2c58a'}]",2022-07-02T02:18:41,116.744461,34.933543,116.73894306461833,34.93430128420851,体育休闲服务,休闲场所,垂钓园
267,B0FFHKV4KN,百鸟乐园,越河北路3号楼附近,山东省,370000,济宁市,537,任城区,370811,15588700890;13287267876,体育休闲服务;休闲场所;游乐场,"[{'title': [], 'url': 'http://store.is.autonavi.com/showpic/b51ae39fc347039fcc7f2fccb5740fbd'}, {'title': [], 'url': 'http://store.is.autonavi.com/showpic/7bbcef3d625ea67725eaec17171d9078'}]",2022-07-02T02:09:23,116.569541,35.400881,116.56423644454652,35.4013255374123,体育休闲服务,休闲场所,游乐场
268,B0GU35JFYU,洛阳酒馆(秀水城店),秀白山商业街山塘街17号(东2门),山东省,370000,济宁市,537,任城区,370811,[],体育休闲服务;娱乐场所;酒吧,"[{'title': [], 'url': 'http://store.is.autonavi.com/showpic/9110cf1d47fc292dda096424bdbd9bd9'}, {'title': [], 'url': 'http://store.is.autonavi.com/showpic/d28a499f147ea7c0cabcebd506a3ac46'}, {'title': [], 'url': 'http://store.is.autonavi.com/showpic/c83003af63c68142e91857676b918eca'}]",2022-07-02T02:06:59,116.587942,35.405572,116.58265218848186,35.40602809275997,体育休闲服务,娱乐场所,酒吧
269,B0GK47R0BW,曲阜市息陬镇敬老院,[],山东省,370000,济宁市,537,曲阜市,370881,[],体育休闲服务;度假疗养场所;疗养院,[],2022-07-02T02:06:41,117.030309,35.535195,117.02446472707749,35.535275497927586,体育休闲服务,度假疗养场所,疗养院
270,B0FFG8ALRA,梁山商业街敬老院,S30董梁高速与梁山北立交路口东北140米,山东省,370000,济宁市,537,梁山县,370832,[],体育休闲服务;度假疗养场所;疗养院,"[{'title': [], 'url': 'http://store.is.autonavi.com/showpic/13e6d32faefa1d86ffd4fc12a40a6b7e'}]",2022-07-02T02:05:34,116.102538,35.844031,116.09669397176133,35.843886226856576,体育休闲服务,度假疗养场所,疗养院
271,B0H0OH0HBB,济宁市任城区奇闻文化娱乐区域内,龙欣然1号龙城广场F1,山东省,370000,济宁市,537,任城区,370811,[],体育休闲服务;娱乐场所;娱乐场所,[],2022-07-02T02:05:28,116.589671,35.397142,116.58438248155352,35.39760580715366,体育休闲服务,娱乐场所,娱乐场所
272,B0FFMGQUBX,红旗樱桃园,老僧堂镇轩楼村,山东省,370000,济宁市,537,嘉祥县,370829,13181467234,体育休闲服务;休闲场所;采摘园,"[{'title': [], 'url': 'http://store.is.autonavi.com/showpic/aa10eb10f572e97322e643beed2af5d6'}, {'title': [], 'url': 'http://store.is.autonavi.com/showpic/891344e7d0e6daac4f723569d89a90d4'}, {'title': [], 'url': 'http://store.is.autonavi.com/showpic/e0810baf1c28c845b530a5fb65340534'}]",2022-07-02T02:03:38,116.138358,35.529292,116.13260056727788,35.52932797145866,体育休闲服务,休闲场所,采摘园
273,B0FFLANXEB,西饮酒馆,矿建东路1650号,山东省,370000,济宁市,537,邹城市,370883,[],体育休闲服务;娱乐场所;酒吧,"[{'title': [], 'url': 'http://store.is.autonavi.com/showpic/6c3c928bb5573c0fd28cf809c5b1cc2f'}, {'title': [], 'url': 'http://store.is.autonavi.com/showpic/ebf5799e6d9f665600e673b5ef3f424e'}, {'title': [], 'url': 'http://store.is.autonavi.com/showpic/22e87014269d1846c1e49d7e97d2388a'}]",2022-07-02T02:02:34,116.937587,35.401756,116.93211031444751,35.40218283113709,体育休闲服务,娱乐场所,酒吧
274,B0HBFZZ081,隆余垂钓园,接庄镇小郝转盘向南3公里向东转弯300米,山东省,370000,济宁市,537,任城区,370811,13884734899;15166775236,体育休闲服务;休闲场所;垂钓园,"[{'title': [], 'url': 'http://store.is.autonavi.com/showpic/b3e4c21cf7283104764d3390e89b076f'}]",2022-07-02T02:02:02,116.652572,35.350445,116.64720483526072,35.35089461619679,体育休闲服务,休闲场所,垂钓园
275,B0GR1SXY4H,草莓采摘园,金屯镇高庄村北20米路东,山东省,370000,济宁市,537,嘉祥县,370829,15153725855,体育休闲服务;休闲场所;采摘园,"[{'title': [], 'url': 'http://store.is.autonavi.com/showpic/52fb1b23abd23adac6be7a210b20fd39'}, {'title': [], 'url': 'http://store.is.autonavi.com/showpic/11f6ae82768590f29132b3bbed4e0bce'}, {'title': [], 'url': 'http://store.is.autonavi.com/showpic/53c539c9c0e6a1fc10aa24bbbbfab900'}]",2022-07-02T02:01:32,116.372665,35.297603,116.3669736387244,35.297809472377054,体育休闲服务,休闲场所,采摘园
276,B0FFG4YCUD,曲阜市儒家舜和老年公寓,秉礼北路18号,山东省,370000,济宁市,537,曲阜市,370881,[],体育休闲服务;度假疗养场所;疗养院,"[{'title': [], 'url': 'http://store.is.autonavi.com/showpic/567a5228a3102e78f395ce62'}, {'title': [], 'url': 'http://store.is.autonavi.com/showpic/567a5228a3102e78f395ce64'}, {'title': [], 'url': 'http://store.is.autonavi.com/showpic/026dfdbf17bd1374f7a10478e7e46306'}]",2022-07-02T01:57:30,117.000456,35.598947,116.99472818729004,35.59907491100835,体育休闲服务,度假疗养场所,疗养院
277,B0FFLIJG6S,邹城市体育中心-室内体育馆,邹城市体育赛事中心体育馆,山东省,370000,济宁市,537,邹城市,370883,[],体育休闲服务;运动场馆;综合体育馆,[],2022-07-02T01:56:20,117.012656,35.395424,117.006897938026,35.39565992192149,体育休闲服务,运动场馆,综合体育馆
278,B0FFFRK5ON,邹城市第六老年公寓(共建路),迎宾大道宏鹏花园东北侧约30米,山东省,370000,济宁市,537,邹城市,370883,0537-5489111;0537-5489777,体育休闲服务;度假疗养场所;疗养院,"[{'title': [], 'url': 'http://store.is.autonavi.com/showpic/df2b9e64643f8f4ec7854bf0c406e3eb'}, {'title': [], 'url': 'http://store.is.autonavi.com/showpic/238b7bcc72f8ceb335d0846c2f564a47'}, {'title': [], 'url': 'http://store.is.autonavi.com/showpic/70abfa1f5e86dee11b9c19df0eb2f1b6'}]",2022-07-02T01:55:24,116.946924,35.320573,116.94143021508276,35.32105502329967,体育休闲服务,度假疗养场所,疗养院
279,B0FFMDBE1Q,圣都生态垂钓园,北二环祥云社区北500米,山东省,370000,济宁市,537,汶上县,370830,[],体育休闲服务;休闲场所;垂钓园,"[{'title': [], 'url': 'http://store.is.autonavi.com/showpic/d7dd10c4bf45455e0e6ed3dcd7ad5b46'}, {'title': [], 'url': 'http://store.is.autonavi.com/showpic/638d33b08a9a9e6e3f1aee4d0ccfa544'}]",2022-07-02T01:55:11,116.474222,35.757051,116.4685968894321,35.75703868167316,体育休闲服务,休闲场所,垂钓园
280,B0HGTS9CTE,天露润甜瓜采摘园,[],山东省,370000,济宁市,537,金乡县,370828,13258029777,体育休闲服务;休闲场所;采摘园,"[{'title': [], 'url': 'http://store.is.autonavi.com/showpic/2ab6373a927b177f211cdc1c2bbe8623'}, {'title': [], 'url': 'http://store.is.autonavi.com/showpic/cbec7535ea03de77c4d2b751935d0841'}, {'title': [], 'url': 'http://store.is.autonavi.com/showpic/5e19c372dabbcc2c1a534ed7fcb4987b'}]",2022-07-02T01:51:40,116.382035,35.211749,116.3763421971084,35.212031540794044,体育休闲服务,休闲场所,采摘园
281,B0FFGPGI5W,龙山庄园,武家村,山东省,370000,济宁市,537,曲阜市,370881,15634513099,体育休闲服务;休闲场所;休闲场所,"[{'title': [], 'url': 'http://store.is.autonavi.com/showpic/2e527ced43f1217e06b5ff4239137980'}]",2022-07-02T01:51:06,116.999655,35.501618,116.99394096959146,35.501810805412774,体育休闲服务,休闲场所,休闲场所
282,B0FFL1ZUCW,金乡县咸古店垂钓生态系园,马庙镇咸古店垂钓生态系园,山东省,370000,济宁市,537,金乡县,370828,17861304444,体育休闲服务;体育休闲服务场所;体育休闲服务场所,"[{'title': [], 'url': 'http://store.is.autonavi.com/showpic/9486e23639cff3b31ee41d00126a3258'}, {'title': [], 'url': 'http://store.is.autonavi.com/showpic/2ffa266c1b8ea407fe0d75d04f5e5e6b'}, {'title': [], 'url': 'http://store.is.autonavi.com/showpic/1778ff6f11886fdc4c31a8a142d5322a'}]",2022-07-02T01:50:59,116.197422,35.041819,116.19186429187108,35.04241785284785,体育休闲服务,体育休闲服务场所,体育休闲服务场所
283,B02190AA98,华丽休闲其中心,龙桥路地税局正对面,山东省,370000,济宁市,537,兖州区,370812,0537-3434999,生活服务;洗浴推拿场所;洗浴推拿场所|体育休闲服务;体育休闲服务场所;体育休闲服务场所,"[{'title': '酒店外观', 'url': 'http://store.is.autonavi.com/showpic/e054129ed15df760c170718b244ef326'}, {'title': [], 'url': 'http://store.is.autonavi.com/showpic/7467060ed77d30727b1002de92bd974d'}, {'title': '客房', 'url': 'http://store.is.autonavi.com/showpic/ef25c1e675c3badb0b261bc1d5dac768'}]",2022-07-02T01:50:10,116.816461,35.552493,116.81093236781484,35.55272626400741,体育休闲服务,体育休闲服务场所,体育休闲服务场所
284,B02190XRHC,汶上县南站街道敬老院,南站街道政府东350米,山东省,370000,济宁市,537,汶上县,370830,[],体育休闲服务;度假疗养场所;疗养院,[],2022-07-02T01:49:55,116.513677,35.63118,116.50820414450224,35.63134145857322,体育休闲服务,度假疗养场所,疗养院
285,B0FFF3K4QK,微山三元农家乐,微山微山湖风景区入口处,山东省,370000,济宁市,537,微山县,370826,"+862126137886,5116847#;15853740639",住宿服务;住宿服务相关;住宿服务相关|体育休闲服务;休闲场所;休闲场所,"[{'provider': [], 'title': [], 'url': 'http://store.is.autonavi.com/showpic/e7b5bea4b18db16e5d7bd07e5d0f4524'}, {'provider': [], 'title': [], 'url': 'http://store.is.autonavi.com/showpic/244b179865ab1bcce31145ac96f1d561'}, {'provider': [], 'title': [], 'url': 'http://store.is.autonavi.com/showpic/d58005912d8bd5fe3f17b2b26ef3ab4d'}]",2022-07-02T01:49:40,117.284848,34.69392,117.27904244330408,34.694895869212026,体育休闲服务,休闲场所,休闲场所
286,B0FFKGNPLH,永安农家院,兴苑路与朝阳门大道交叉口北160米,山东省,370000,济宁市,537,曲阜市,370881,[],体育休闲服务;体育休闲服务场所;体育休闲服务场所,[],2022-07-02T01:46:04,116.876643,35.514025,116.87120761722365,35.514382068844775,体育休闲服务,体育休闲服务场所,体育休闲服务场所
287,B0G3OZ9D4M,微乐谷儿童娱乐服务中心,星村镇星二村,山东省,370000,济宁市,537,泗水县,370831,15275741394,体育休闲服务;休闲场所;游乐场,[],2022-07-02T01:38:23,117.406579,35.689704,117.40042893049171,35.689593782955896,体育休闲服务,休闲场所,游乐场
288,B0FFHQ15BN,鼎盛网络台球会所,九州中路六里井新村,山东省,370000,济宁市,537,兖州区,370812,[],体育休闲服务;运动场馆;台球厅,"[{'title': [], 'url': 'http://store.is.autonavi.com/showpic/b81c58e236da9fb509f8871f7325156b'}, {'title': [], 'url': 'http://store.is.autonavi.com/showpic/40c99a761ed57877fd0bd3ce126db05c'}]",2022-07-02T01:38:06,116.768337,35.550999,116.7627515464936,35.55116816667116,体育休闲服务,运动场馆,台球厅
289,B0FFJBCPPI,聚源垂钓园,南阳湖农场农业观光园南490米,山东省,370000,济宁市,537,任城区,370811,15106789012,体育休闲服务;体育休闲服务场所;体育休闲服务场所,[],2022-07-02T01:36:38,116.632273,35.310673,116.62695458249804,35.31119097522425,体育休闲服务,体育休闲服务场所,体育休闲服务场所
290,B0219009BA,梁山县韩岗镇敬老院,日凤线韩岗镇教育中心小学东北侧约100米,山东省,370000,济宁市,537,梁山县,370832,[],体育休闲服务;度假疗养场所;疗养院,"[{'title': [], 'url': 'http://store.is.autonavi.com/showpic/20557dbbb50abd1d8e950638955cf09f'}]",2022-07-02T01:35:54,116.321594,35.72578,116.31595542553464,35.725776982719744,体育休闲服务,度假疗养场所,疗养院
291,B0HAVA7MP7,凤井庄园,九仙山天池正北,山东省,370000,济宁市,537,曲阜市,370881,[],体育休闲服务;休闲场所;休闲场所,[],2022-07-02T01:34:57,117.001857,35.797628,116.99610190470123,35.79766046986442,体育休闲服务,休闲场所,休闲场所
292,B0FFIT9UFB,宋军草莓园,高楼乡微山湖风景名胜区,山东省,370000,济宁市,537,微山县,370826,13626177969,体育休闲服务;体育休闲服务场所;体育休闲服务场所,"[{'title': [], 'url': 'http://store.is.autonavi.com/showpic/dfacc8079e839214d4669e824f956bac'}, {'title': [], 'url': 'http://store.is.autonavi.com/showpic/0ae2166bc4abcf1ec20f6701ce46d982'}, {'title': [], 'url': 'http://store.is.autonavi.com/showpic/61dec47a145b2f6e4c2bb59c923d2ccc'}]",2022-07-02T01:34:56,117.071082,34.72397,117.06520195535622,34.72477411013505,体育休闲服务,体育休闲服务场所,体育休闲服务场所
293,B0G0D59WVE,济宁体育中心-足球场,荷花路2号,山东省,370000,济宁市,537,任城区,370811,[],体育休闲服务;运动场馆;足球场,[],2022-07-02T01:32:46,116.582765,35.355352,116.57747785591611,35.35584850741544,体育休闲服务,运动场馆,足球场
294,B0FFKSVT2J,龙泉山衡庙葡萄采摘园,星吴线南50米,山东省,370000,济宁市,537,曲阜市,370881,[],体育休闲服务;体育休闲服务场所;体育休闲服务场所,"[{'title': [], 'url': 'https://aos-comment.amap.com/B0FFKSVT2J/comment/1656207050288_temp_1656207052200_58220d4d.jpg'}, {'title': [], 'url': 'https://aos-comment.amap.com/B0FFKSVT2J/comment/1656207100874_temp_1656207101631_05c220b4.jpg'}, {'title': [], 'url': 'https://aos-comment.amap.com/B0FFKSVT2J/comment/content_media_external_images_media_124708_1656207151095_606949a8.jpg'}]",2022-07-02T01:29:33,117.038571,35.716269,117.03267653116656,35.71622962145545,体育休闲服务,体育休闲服务场所,体育休闲服务场所
295,B0G03MGL0T,嘚嘚啊噗华人时髦酒吧,万达金街23-133,山东省,370000,济宁市,537,任城区,370811,[],体育休闲服务;娱乐场所;酒吧,"[{'title': [], 'url': 'https://img.alicdn.com/imgextra/i1/3695320962/O1CN01O1dBKl1Iydh0WGu3O_!!3695320962-0-kbcontentapng.jpg'}, {'title': [], 'url': 'https://img.alicdn.com/imgextra/i1/3695320962/O1CN01PgHWnV1Iydh3CqwEv_!!3695320962-0-kbcontentapng.jpg'}, {'title': [], 'url': 'https://img.alicdn.com/imgextra/i1/3695320962/O1CN01X84sl51Iydh7cW2DU_!!3695320962-0-kbcontentapng.jpg'}]",2022-07-02T01:24:54,116.601816,35.408852,116.59652475870568,35.40930701736574,体育休闲服务,娱乐场所,酒吧
296,B0FFH84IAW,颜店镇敬老院,[],山东省,370000,济宁市,537,兖州区,370812,[],体育休闲服务;度假疗养场所;疗养院,"[{'title': [], 'url': 'http://store.is.autonavi.com/showpic/8ede120616b332679c56b983c67ff530'}]",2022-07-02T01:23:43,116.697224,35.590853,116.691716296036,35.59104088585794,体育休闲服务,度假疗养场所,疗养院
297,B0G0FA85ZL,新寨社区生态园,白石镇中心幼儿园东侧280米,山东省,370000,济宁市,537,汶上县,370830,[],体育休闲服务;休闲场所;休闲场所,[],2022-07-02T01:22:13,116.643548,35.792597,116.63815725213462,35.79278867013351,体育休闲服务,休闲场所,休闲场所
298,B0FFKWXQQ4,微山县昭阳裕伟农家乐,微山湖大道微山湖老年疗养院对面,山东省,370000,济宁市,537,微山县,370826,13639406088,体育休闲服务;体育休闲服务场所;体育休闲服务场所,"[{'title': [], 'url': 'http://store.is.autonavi.com/showpic/f836d60460127081682cee234411d44b'}]",2022-07-02T01:20:59,117.140309,34.780792,117.13440740870006,34.78155681543938,体育休闲服务,体育休闲服务场所,体育休闲服务场所
299,B0FFK8YBKW,崇德跆拳道,洸河路与古槐路交接向北200米文昌阁小学南门对过二楼,山东省,370000,济宁市,537,任城区,370811,18063197089,体育休闲服务;运动场馆;跆拳道场馆,"[{'title': [], 'url': 'http://store.is.autonavi.com/showpic/91f20a5e9c9495f86dee2a47f9b28b38'}]",2022-07-02T01:18:38,116.582258,35.423008,116.5769637737349,35.42344665082259,体育休闲服务,运动场馆,跆拳道场馆
300,B02190B5NH,滨湖田园,夏阳路,山东省,370000,济宁市,537,微山县,370826,[],体育休闲服务;休闲场所;垂钓园,"[{'title': [], 'url': 'http://store.is.autonavi.com/showpic/a6955f1d924ede8dd9b5c2e2d62c85a1'}]",2022-07-02T01:17:43,117.09194,34.824632,117.08601886021546,34.825317743231935,体育休闲服务,休闲场所,垂钓园
301,B0HD77S3GA,青山贫农院,[],山东省,370000,济宁市,537,嘉祥县,370829,[],体育休闲服务;休闲场所;休闲场所,[],2022-07-02T01:17:32,116.308694,35.333641,116.30312273427526,35.33392406483624,体育休闲服务,休闲场所,休闲场所
302,B0FFFGTXUC,任城散文中心,济安桥南路,山东省,370000,济宁市,537,任城区,370811,0537-6551855,体育休闲服务;运动场馆;综合体育馆,"[{'title': [], 'url': 'http://store.is.autonavi.com/showpic/e02c68d081dd788f2de1c1354c2d40b3'}, {'title': [], 'url': 'http://store.is.autonavi.com/showpic/0f591eb557820bf6d03eaf507b27b753'}, {'title': [], 'url': 'http://store.is.autonavi.com/showpic/00d71cda4b2a0dc50bd9166e3ca606af'}]",2022-07-02T01:15:53,116.565952,35.39195,116.5606431890534,35.39239729773607,体育休闲服务,运动场馆,综合体育馆
303,B0HUPUOK6X,悠娱部落VR主题乐园,逵泉东路体育公园东南17号门旁,山东省,370000,济宁市,537,曲阜市,370881,15345375565;19963930789,体育休闲服务;娱乐场所;娱乐场所,"[{'title': [], 'url': 'http://store.is.autonavi.com/showpic/c4d3adff42d1ffc2694ee4028bd19049'}]",2022-07-02T01:14:53,117.002773,35.584785,116.99703676348446,35.584914186563495,体育休闲服务,娱乐场所,娱乐场所
304,B0FFMHHSZZ,春上村生态园,高河街道苏楼村,山东省,370000,济宁市,537,金乡县,370828,0537-8720999;15763796999,体育休闲服务;休闲场所;休闲场所,"[{'title': [], 'url': 'http://store.is.autonavi.com/showpic/5d80b575838d51d8ca358ccc57ca15e0'}]",2022-07-02T01:10:29,116.37886,35.071083,116.373184934367,35.07151996336556,体育休闲服务,休闲场所,休闲场所
305,B0G2U951K5,芳雅轩瑜伽,中御桥北路诺亚小区,山东省,370000,济宁市,537,兖州区,370812,[],体育休闲服务;运动场馆;健身中心,[],2022-07-02T01:10:21,116.828879,35.552942,116.82337246132651,35.55319811097858,体育休闲服务,运动场馆,健身中心
306,B0FFMCDNC8,路人王湘北篮球馆,红星东路与凌云路路口往西一百米路南,山东省,370000,济宁市,537,任城区,370811,0537-5151988,体育休闲服务;运动场馆;篮球场馆,"[{'title': [], 'url': 'http://store.is.autonavi.com/showpic/12d6335e15fc5f8d33bceddb64d9a5a9'}, {'title': [], 'url': 'http://store.is.autonavi.com/showpic/29d9afd8f598c6b673263eecd961392d'}]",2022-07-02T01:09:34,116.640525,35.415473,116.63517930650886,35.41588685442958,体育休闲服务,运动场馆,篮球场馆
307,B0FFKFCZO8,济宁黄屯李鹤劈柴院,高新技工学校西邻,山东省,370000,济宁市,537,兖州区,370812,18766871222,餐饮服务;中餐厅;中餐厅|体育休闲服务;体育休闲服务场所;体育休闲服务场所,"[{'title': [], 'url': 'http://store.is.autonavi.com/showpic/f4293c2db9db3fc33d126e6ab46f2187'}, {'title': [], 'url': 'http://store.is.autonavi.com/showpic/0103bc0c53c683267844533e54b0d09b'}, {'title': [], 'url': 'http://store.is.autonavi.com/showpic/8bf0aa5648222a2892d560c441f3b51a'}]",2022-07-02T01:08:59,116.739178,35.482039,116.733607973768,35.48225193274253,体育休闲服务,体育休闲服务场所,体育休闲服务场所
308,B0GKJHZFCL,自由瑜伽,华沁苑一期17号楼自由瑜伽,山东省,370000,济宁市,537,曲阜市,370881,[],体育休闲服务;运动场馆;健身中心,[],2022-07-02T01:08:49,116.94894,35.582352,116.94341311497566,35.582628533098486,体育休闲服务,运动场馆,健身中心
309,B0HRGS8WY4,星夜KTV,老交警队路口东50米,山东省,370000,济宁市,537,汶上县,370830,[],体育休闲服务;娱乐场所;KTV,[],2022-07-02T01:06:53,116.505964,35.722841,116.50045442039644,35.72293556347733,体育休闲服务,娱乐场所,KTV
310,B0HAOSJB3H,人从众棋牌室,南张社区博澳鸿城,山东省,370000,济宁市,537,任城区,370811,18766813112,体育休闲服务;娱乐场所;棋牌室,"[{'title': [], 'url': 'http://store.is.autonavi.com/showpic/4462f83134209dd08243702777831c29'}, {'title': [], 'url': 'http://store.is.autonavi.com/showpic/60246c088a985cb9ce2ee75841dbaf5a'}, {'title': [], 'url': 'http://store.is.autonavi.com/showpic/e96f70f05a6a179f4e3e4c5def375901'}]",2022-07-02T01:06:40,116.567707,35.432582,116.56239671766386,35.432998305647466,体育休闲服务,娱乐场所,棋牌室
311,B02190AXVC,土城社区互助养老院,复兴街贵和苑西北侧约170米,山东省,370000,济宁市,537,任城区,370811,[],体育休闲服务;度假疗养场所;疗养院,"[{'title': [], 'url': 'http://store.is.autonavi.com/showpic/0d725146cb96a8242c7106d0d119eb9e'}, {'title': [], 'url': 'http://store.is.autonavi.com/showpic/5684e506a310f9ed8809a4c0'}, {'title': [], 'url': 'http://store.is.autonavi.com/showpic/5684e506a310f9ed8809a4c4'}]",2022-07-02T01:05:46,116.570514,35.41142,116.56520966431962,35.41185698976878,体育休闲服务,度假疗养场所,疗养院
312,B0FFL46Z98,曲阜九仙山阳光果园,高丽路(京台高速曲阜北出口向西1公里处路南),山东省,370000,济宁市,537,曲阜市,370881,18953775535,体育休闲服务;休闲场所;采摘园,[],2022-07-02T01:03:22,117.046066,35.746686,117.04014258198838,35.74661643340051,体育休闲服务,休闲场所,采摘园
313,B0HRVCUPK8,极武龍传承(济宁校区),金宇路百丰大厦1楼,山东省,370000,济宁市,537,任城区,370811,18595239222,体育休闲服务;运动场馆;运动场所,"[{'title': [], 'url': 'http://store.is.autonavi.com/showpic/5d0d91df5b2cc6c754eea43019a267c9'}, {'title': [], 'url': 'http://store.is.autonavi.com/showpic/c28c2313ba70052c9d0340acb37854ac'}]",2022-07-02T01:03:18,116.605325,35.429664,116.60002972332452,35.430101181961625,体育休闲服务,运动场馆,运动场所
314,B0H2B7KJXW,战云台球俱乐部,李营街道古槐北路爱客多超市晨阳店电梯东侧西边第二间,山东省,370000,济宁市,537,任城区,370811,13285470123,体育休闲服务;运动场馆;台球厅,"[{'title': [], 'url': 'http://store.is.autonavi.com/showpic/a7f8bba7333b6e3611db578157657aca'}, {'title': [], 'url': 'http://store.is.autonavi.com/showpic/485bb77db30f85524624b04f6514214c'}, {'title': [], 'url': 'http://store.is.autonavi.com/showpic/85ff1b08792e75e8bb6df83c397d553a'}]",2022-07-02T01:03:01,116.58118,35.435443,116.57588381500122,35.43587093606392,体育休闲服务,运动场馆,台球厅
315,B0FFI8MXRJ,格莱美餐厅(济宁店),环城北路6号,山东省,370000,济宁市,537,任城区,370811,[],体育休闲服务;娱乐场所;酒吧,"[{'title': [], 'url': 'http://store.is.autonavi.com/showpic/da9e17bea87e47396d91ae1d8174dcab'}, {'title': [], 'url': 'http://store.is.autonavi.com/showpic/b270931ee5e6c1acc67b8fd07a3c4355'}, {'title': [], 'url': 'http://store.is.autonavi.com/showpic/42366fc8e7fc4693b024fdca5bd375a6'}]",2022-07-02T01:02:21,116.587985,35.41692,116.58269406542678,35.417366771053935,体育休闲服务,娱乐场所,酒吧
316,B0FFFZD4SG,北宿煤矿老年活动中心,北宿大街安居北区南侧约40米,山东省,370000,济宁市,537,邹城市,370883,[],体育休闲服务;休闲场所;休闲场所,"[{'title': [], 'url': 'http://store.is.autonavi.com/showpic/b47c4f96e315196ea12e6b50cd540043'}]",2022-07-02T00:56:42,116.890151,35.35709,116.88473671463954,35.35758134552186,体育休闲服务,休闲场所,休闲场所
317,B0FFFE84R0,功夫,吕垭口村文化广场对过,山东省,370000,济宁市,537,梁山县,370832,[],体育休闲服务;娱乐场所;网吧|购物服务;购物相关场所;购物相关场所,"[{'title': [], 'url': 'http://store.is.autonavi.com/showpic/684d4d3124ef65ad2d26a6c06ce445dd'}, {'title': [], 'url': 'http://store.is.autonavi.com/showpic/bcd6ab607197528ec4b3c3f943b0be3a'}]",2022-07-02T00:55:47,116.085925,35.811499,116.08008095392948,35.81136790146904,体育休闲服务,娱乐场所,网吧
318,B0GKBBCBWU,便民活动场所,景云路柏曼酒店(济宁黄屯店)西南侧约70米,山东省,370000,济宁市,537,兖州区,370812,[],体育休闲服务;体育休闲服务场所;体育休闲服务场所,[],2022-07-02T00:55:02,116.717472,35.450425,116.71193549096168,35.45067930296066,体育休闲服务,体育休闲服务场所,体育休闲服务场所
319,B02190B71S,竹子花,商业街中段联邦法院北188米路东,山东省,370000,济宁市,537,微山县,370826,[],体育休闲服务;娱乐场所;KTV,"[{'title': [], 'url': 'http://store.is.autonavi.com/showpic/7cc8aba54ef47e830f91c7d75f875f81'}, {'title': [], 'url': 'http://store.is.autonavi.com/showpic/cc3c51b6746d44b47caaaf246f9f51eb'}, {'title': [], 'url': 'http://store.is.autonavi.com/showpic/aad1951ed85f6121c750d94e446e0e25'}]",2022-07-02T00:54:32,117.140278,34.808767,117.13437339228533,34.80950274069528,体育休闲服务,娱乐场所,KTV
320,B0FFHKJAGZ,圣龙武道武术馆(济宁总馆),狄园街南池水景园C区东门北侧约60米,山东省,370000,济宁市,537,任城区,370811,13563794555,体育休闲服务;运动场馆;运动场所,"[{'title': [], 'url': 'http://store.is.autonavi.com/showpic/16eb86d99d2f2b117514f6a35a521511'}, {'title': [], 'url': 'http://store.is.autonavi.com/showpic/cf4cd440558822b1af5f6c0fb7c94953'}]",2022-07-02T00:51:23,116.575826,35.392225,116.57052963852205,35.3926837990558,体育休闲服务,运动场馆,运动场所
321,B0FFK5MHCG,一鸣生态冬枣采摘园,卧龙山街道苏营村南1公里,山东省,370000,济宁市,537,嘉祥县,370829,18766869742,体育休闲服务;休闲场所;采摘园,"[{'title': [], 'url': 'http://aos-cdn-image.amap.com/sns/ugccomment/bd9a7fc2-a961-414a-a6cb-521adb887056.jpg'}, {'title': [], 'url': 'http://aos-cdn-image.amap.com/sns/ugccomment/a5d7bbd8-a618-4fb9-a6a5-02db69aa11ae.jpg'}, {'title': [], 'url': 'http://store.is.autonavi.com/showpic/a4c3322dda20abb5df4f776eaf95d7d4'}]",2022-07-02T00:48:45,116.283092,35.363854,116.27755896177578,35.364148629327715,体育休闲服务,休闲场所,采摘园
322,B021901FE4,鲁城街道敬老院,延恩西路43号,山东省,370000,济宁市,537,曲阜市,370881,[],体育休闲服务;度假疗养场所;疗养院,"[{'title': [], 'url': 'http://store.is.autonavi.com/showpic/567a5000a3102e78f395ba02'}]",2022-07-02T00:48:05,116.986804,35.602256,116.98113400261242,35.60242317610679,体育休闲服务,度假疗养场所,疗养院
323,B0HU2UTBDO,轻逸瑜伽普拉提,森泰御城南区轻逸瑜伽普拉提,山东省,370000,济宁市,537,任城区,370811,15589757159,体育休闲服务;运动场馆;健身中心,"[{'title': [], 'url': 'http://store.is.autonavi.com/showpic/725948ab9e421622124c629e974d2c3c'}, {'title': [], 'url': 'http://store.is.autonavi.com/showpic/3cf15ac2f8327f58b871879f3174e164'}]",2022-07-02T00:46:41,116.627816,35.413702,116.62249525443048,35.41413465850141,体育休闲服务,运动场馆,健身中心
324,B0HKD97I80,快乐碰碰车(九州商厦建设东路店),建设工程东路16号九州商厦建设东路店F3,山东省,370000,济宁市,537,兖州区,370812,[],体育休闲服务;娱乐场所;娱乐场所,[],2022-07-02T00:43:55,116.837121,35.555568,116.83162886899623,35.5558378358886,体育休闲服务,娱乐场所,娱乐场所
325,B0FFKRHLPZ,九仙雅聚,吴村镇,山东省,370000,济宁市,537,曲阜市,370881,[],体育休闲服务;体育休闲服务场所;体育休闲服务场所,"[{'title': [], 'url': 'http://aos-cdn-image.amap.com/sns/ugccomment/b70c8ee1-e6b4-4ff0-8875-d7fad1a41367.jpg'}, {'title': [], 'url': 'http://aos-cdn-image.amap.com/sns/ugccomment/7f964b8f-4e36-4b87-a69f-a9637091af8d.jpg'}, {'title': [], 'url': 'http://aos-cdn-image.amap.com/sns/ugccomment/ae3930c9-6e1e-4d0b-9aff-0200f78b6afd.jpg'}]",2022-07-02T00:41:50,117.002976,35.80013,116.9972158272464,35.800158192263325,体育休闲服务,体育休闲服务场所,体育休闲服务场所
326,B0G337YW0W,梦回九天量贩式KTV,南外环济鱼路南,山东省,370000,济宁市,537,任城区,370811,[],体育休闲服务;娱乐场所;KTV,"[{'title': [], 'url': 'http://store.is.autonavi.com/showpic/b7cdc41e5f20ef83236427581f01f773'}]",2022-07-02T00:41:42,116.54618,35.349619,116.54083532446708,35.350067702997514,体育休闲服务,娱乐场所,KTV
327,B0H2AS57CX,星源马汇竞技马房,滨湖农场西邻,山东省,370000,济宁市,537,任城区,370811,18653719299,体育休闲服务;体育休闲服务场所;体育休闲服务场所,[],2022-07-02T00:40:06,116.63113,35.358869,116.62580887527476,35.35934439618645,体育休闲服务,体育休闲服务场所,体育休闲服务场所
