id,name,address,pname,pcode,cityname,citycode,adname,adcode,tel,type,photos,timestamp,lon_gcj02,lat_gcj02,lon_wgs84,lat_wgs84,大类,中类,小类
B0IUH5OD57,中国工商银行,玛格丽医疗美容医院南侧100米,山东省,370000,济宁市,537,任城区,370811,[],金融保险服务;银行;中国工商银行,[],2022-09-02T03:53:21,116.61326,35.449097,116.60795599350554,35.449514926671924,金融保险服务,银行,中国工商银行
B0IR411UHP,平安保险,中区火炬南路居然之家D座,山东省,370000,济宁市,537,任城区,370811,[],金融保险服务;金融保险服务机构;金融保险机构,[],2022-09-01T18:50:39,116.622714,35.414902,116.61740132574428,35.41533926094579,金融保险服务,金融保险服务机构,金融保险机构
B02190AG0T,金乡县农村商业银行(金乡支行),中心街西首路北,山东省,370000,济宁市,537,金乡县,370828,0537-8727934,金融保险服务;银行;农村商业银行,"[{'title': [], 'url': 'http://store.is.autonavi.com/showpic/e275121e13a3ac22bb45d2e03f1635a7'}]",2022-09-01T17:33:37,116.301088,35.064806,116.29555844251398,35.06537978080764,金融保险服务,银行,农村商业银行
B0IDFSG12V,曲阜农商银行(蓼河分理处),孔子大道与文盛路交叉口南160米,山东省,370000,济宁市,537,曲阜市,370881,0537-4916101,金融保险服务;银行;农村商业银行,[],2022-09-01T14:10:16,116.970021,35.556299,116.96442366967682,35.556541544019886,金融保险服务,银行,农村商业银行
B02190A7LA,汶上农商银行24小时自助银行(东门支行),尚书路469-493号,山东省,370000,济宁市,537,汶上县,370830,[],金融保险服务;自动提款机;农村商业银行ATM,"[{'title': [], 'url': 'http://store.is.autonavi.com/showpic/b7323c05363c03bb8a8fa2ed99aba329'}, {'title': [], 'url': 'http://store.is.autonavi.com/showpic/567a54ffa3102e78f395e98d'}, {'title': [], 'url': 'http://store.is.autonavi.com/showpic/567a54ffa3102e78f395e98b'}]",2022-08-31T23:29:21,116.498044,35.727783,116.4925054344884,35.72785172412957,金融保险服务,自动提款机,农村商业银行ATM
B0IDYCV7LL,中国人寿,建设东路272号老鲁南地质工程勘察院二楼,山东省,370000,济宁市,537,兖州区,370812,[],金融保险服务;保险公司;中国人寿保险公司,[],2022-08-31T15:55:05,116.826268,35.555249,116.82075652540898,35.55549873612302,金融保险服务,保险公司,中国人寿保险公司
B0FFGG74N2,济宁市中小企业电子商务服务中心,高新区吴泰闸路6号,山东省,370000,济宁市,537,任城区,370811,[],金融保险服务;金融保险服务机构;金融保险机构,"[{'title': [], 'url': 'http://store.is.autonavi.com/showpic/568100dda3104d32a82543ed'}, {'title': [], 'url': 'http://store.is.autonavi.com/showpic/568100dba3104d32a82543e1'}, {'title': [], 'url': 'http://store.is.autonavi.com/showpic/bfc29b695e00659c77180cc4981f9ffa'}]",2022-08-31T05:21:35,116.626686,35.424629,116.62136606406835,35.4250540850825,金融保险服务,金融保险服务机构,金融保险机构
B0FFJIXAJI,中国邮政储蓄银行ATM(杨柳支行),镇南街11号,山东省,370000,济宁市,537,泗水县,370831,[],金融保险服务;自动提款机;中国邮政储蓄银行ATM,[],2022-08-30T15:09:46,117.137855,35.688187,117.13185197705708,35.6881134773752,金融保险服务,自动提款机,中国邮政储蓄银行ATM
B0IU6CRE0A,济宁银行,府前街与广场路交叉口西南40米,山东省,370000,济宁市,537,金乡县,370828,[],金融保险服务;银行;银行,[],2022-08-30T12:08:03,116.195813,34.95726,116.19026011567064,34.957950772946084,金融保险服务,银行,银行
B0IUACZJKT,莱商银行农村普惠金融综合服务点,乔家村村民委员会东侧80米,山东省,370000,济宁市,537,任城区,370811,[],金融保险服务;金融保险服务机构;金融保险机构,[],2022-08-30T02:30:05,116.501673,35.443645,116.49617685302267,35.44389427113074,金融保险服务,金融保险服务机构,金融保险机构
B0I1F7QN60,大地保险,新闻大厦(洸河路)6层605,山东省,370000,济宁市,537,任城区,370811,[],金融保险服务;保险公司;保险公司,[],2022-08-29T18:32:34,116.62417,35.420085,116.61885457980496,35.4205165307982,金融保险服务,保险公司,保险公司
B0HBGZF9OQ,中国人民保险集团股份有限公司,大禹西路润华汽车广场,山东省,370000,济宁市,537,任城区,370811,[],金融保险服务;保险公司;中国人民保险公司,"[{'title': [], 'url': 'http://store.is.autonavi.com/showpic/2181d24431349f73b0d11ceed4b3769d'}]",2022-08-29T16:52:46,116.676828,35.440073,116.67138828282678,35.44040156389689,金融保险服务,保险公司,中国人民保险公司
B0IUK6J8EF,财务公开,香城镇西洪洋村村委会东北侧,山东省,370000,济宁市,537,邹城市,370883,[],金融保险服务;金融保险服务机构;金融保险机构,[],2022-08-29T02:40:20,117.198888,35.294204,117.19302855824316,35.29452031617652,金融保险服务,金融保险服务机构,金融保险机构
B0IDJAMWVK,个人信用报告人民银行查询点(中国人民银行曲阜市支行),大成路20号,山东省,370000,济宁市,537,曲阜市,370881,0537-7355731,金融保险服务;银行;中国人民银行,[],2022-08-29T02:40:06,116.988808,35.580205,116.98313189408611,35.5803791736832,金融保险服务,银行,中国人民银行
B0IRL9PQ5V,人保公司,水泊西路农行对过,山东省,370000,济宁市,537,梁山县,370832,[],金融保险服务;金融保险服务机构;金融保险机构,[],2022-08-29T02:39:54,116.083897,35.797344,116.07805507281616,35.79721901581335,金融保险服务,金融保险服务机构,金融保险机构
B0FFFZD2LJ,中国人民财产保险股份有限公司(微山支公司电子商务服务中心),戚城街65号附近,山东省,370000,济宁市,537,微山县,370826,[],金融保险服务;保险公司;中国人民保险公司,"[{'title': [], 'url': 'http://store.is.autonavi.com/showpic/6bde919460ec47164ac6f47caee7eca0'}]",2022-08-27T12:42:03,117.120068,34.817576,117.11414341189122,34.81827811344025,金融保险服务,保险公司,中国人民保险公司
B0IDTZIS4C,嘉祥农商银行祥城支行,建设南路42号,山东省,370000,济宁市,537,嘉祥县,370829,[],金融保险服务;银行;农村商业银行,[],2022-08-27T03:57:43,116.338699,35.396472,116.33305811940068,35.39664342696039,金融保险服务,银行,农村商业银行
B0I1FRRQF4,中国平安,金庄镇新汽车站东门对过润泽家居广场西栋三楼,山东省,370000,济宁市,537,泗水县,370831,[],金融保险服务;金融保险服务机构;金融保险机构,[],2022-08-26T18:12:14,117.242104,35.652347,117.23623959727088,35.6524415034407,金融保险服务,金融保险服务机构,金融保险机构
B0I1F7SIVX,中国平安,盛泰广场D座三层,山东省,370000,济宁市,537,任城区,370811,[],金融保险服务;金融保险服务机构;金融保险机构,[],2022-08-26T18:11:37,116.622979,35.411995,116.61766621965808,35.41243437718615,金融保险服务,金融保险服务机构,金融保险机构
B0FFLP6C7S,中国太平,洪山中路天瑞医药公司1楼(嘉祥大酒店北388米路东),山东省,370000,济宁市,537,嘉祥县,370829,[],金融保险服务;保险公司;保险公司,"[{'title': [], 'url': 'http://store.is.autonavi.com/showpic/f37148e1dccc82cf3e4ace35d135ae95'}]",2022-08-26T12:46:34,116.373555,35.414338,116.3678502683517,35.41443969508277,金融保险服务,保险公司,保险公司
B0IDFSF6C1,曲阜农商银行24小时自助银行(蓼河分理处)(暂停营业),文盛路与孔子大道交叉口西南180米,山东省,370000,济宁市,537,曲阜市,370881,[],金融保险服务;自动提款机;农村商业银行ATM,[],2022-08-26T03:59:58,116.969579,35.556134,116.96398338049936,35.55637782795626,金融保险服务,自动提款机,农村商业银行ATM
B0FFHUV7FT,中国民生银行(金宇装饰城小微支行),李营街道金宇路9号金宇家居大市场B馆西南角临街门面房,山东省,370000,济宁市,537,任城区,370811,[],金融保险服务;金融保险服务机构;金融保险机构,"[{'title': [], 'url': 'http://store.is.autonavi.com/showpic/be1a7a811dfa3165354d04eaa34f19a9'}]",2022-08-25T16:15:09,116.597442,35.430924,116.59215004655144,35.43136149165518,金融保险服务,金融保险服务机构,金融保险机构
B0IR413QH3,平安人寿,义乌商贸城海润商品楼四楼,山东省,370000,济宁市,537,兖州区,370812,[],金融保险服务;金融保险服务机构;金融保险机构,[],2022-08-25T02:58:25,116.81353,35.554741,116.80799607196968,35.55496752009409,金融保险服务,金融保险服务机构,金融保险机构
B0IU67UKLO,山东金乡蓝海村镇银行,枣曹路与广场路交叉口东40米,山东省,370000,济宁市,537,金乡县,370828,[],金融保险服务;银行;银行,[],2022-08-23T20:14:26,116.196283,34.956162,116.19073133725624,34.95685477694416,金融保险服务,银行,银行
B0IDV7GO18,莱商银行,呈祥大道与萌山路交叉口西40米,山东省,370000,济宁市,537,嘉祥县,370829,[],金融保险服务;银行;银行,[],2022-08-22T02:26:15,116.357548,35.408718,116.3518685501372,35.408846258334734,金融保险服务,银行,银行
B0IDOCDA1H,济宁银行惠农金服助农取款点,凯盛大道与中心街交叉口西南440米,山东省,370000,济宁市,537,金乡县,370828,[],金融保险服务;金融保险服务机构;金融保险机构,"[{'title': [], 'url': 'http://store.is.autonavi.com/showpic/8713ca2620537a1939ad484d20078d98'}]",2022-08-21T02:26:49,116.272883,35.05071,116.26739203990076,35.051335632140926,金融保险服务,金融保险服务机构,金融保险机构
B0IDXHRXKC,山东百盛期货服务大厅,蒜通天下金乡市场服务中心东南侧,山东省,370000,济宁市,537,金乡县,370828,[],金融保险服务;金融保险服务机构;金融保险机构,[],2022-08-21T02:26:41,116.272854,35.049478,116.26736318726373,35.050105030408666,金融保险服务,金融保险服务机构,金融保险机构
B0ID2UUG6R,社区e店高庙社区站,吉祥路与嘉兴路交叉口西360米,山东省,370000,济宁市,537,嘉祥县,370829,[],金融保险服务;金融保险服务机构;金融保险机构,"[{'title': [], 'url': 'http://store.is.autonavi.com/showpic/4a8109b719c45d5717120f3f910531a7'}]",2022-08-21T02:26:12,116.408509,35.414299,116.40278753119728,35.41438435223591,金融保险服务,金融保险服务机构,金融保险机构
B02190AS32,曲阜农商银行(钟楼分理处),五马祠街12号,山东省,370000,济宁市,537,曲阜市,370881,0537-4412875,金融保险服务;银行;农村商业银行,"[{'title': [], 'url': 'http://store.is.autonavi.com/showpic/567a518aa3102e78f395c959'}, {'title': [], 'url': 'http://store.is.autonavi.com/showpic/b0614b644666da14550ab13b3640a336'}]",2022-08-18T14:56:50,116.994323,35.594216,116.98862196434123,35.594365272437365,金融保险服务,银行,农村商业银行
B0FFFT8O4U,鱼台农商银行(姜庄分理处),谷亭街道水韵豪庭旁边,山东省,370000,济宁市,537,鱼台县,370827,0537-6222930,金融保险服务;银行;农村商业银行,"[{'title': [], 'url': 'http://store.is.autonavi.com/showpic/a6bcf1a24c7a9d246ab1caa34e2b7c92'}]",2022-08-18T12:28:22,116.662737,34.998552,116.65737928970444,34.999350044566306,金融保险服务,银行,农村商业银行
B0IRL1OW9C,人保财险公司,文峰路33号,山东省,370000,济宁市,537,金乡县,370828,[],金融保险服务;金融保险服务机构;金融保险机构,[],2022-08-15T04:01:00,116.312505,35.071337,116.306953088353,35.071883677747685,金融保险服务,金融保险服务机构,金融保险机构
B0IDRZ7ZZS,银联POS机,越山南路与水泊南路交叉口东260米,山东省,370000,济宁市,537,梁山县,370832,[],金融保险服务;金融保险服务机构;金融保险机构,[],2022-08-14T02:47:54,116.088722,35.789769,116.08287984055572,35.78964411002772,金融保险服务,金融保险服务机构,金融保险机构
B0ID7627ZD,保险服务,泰康街与北环路交叉口西南60米,山东省,370000,济宁市,537,微山县,370826,[],金融保险服务;保险公司;保险公司,[],2022-08-13T04:32:41,117.154478,34.823386,117.1485928463734,34.82412961589804,金融保险服务,保险公司,保险公司
B0ID79Z7YZ,渤海财险,327国道北30米,山东省,370000,济宁市,537,泗水县,370831,[],金融保险服务;保险公司;保险公司,[],2022-08-13T02:33:56,117.329292,35.658605,117.3232755451913,35.65859945028131,金融保险服务,保险公司,保险公司
B0ID761KLL,保险经纪,中国国际能源金马加油站西侧130米,山东省,370000,济宁市,537,梁山县,370832,[],金融保险服务;保险公司;保险公司,[],2022-08-13T02:33:44,116.090797,35.817859,116.08495175762756,35.81772358524141,金融保险服务,保险公司,保险公司
B0HUVO63H1,中国人寿保险股份有限公司客户服务中心(建设路),建设路12号,山东省,370000,济宁市,537,任城区,370811,[],金融保险服务;保险公司;中国人寿保险公司,[],2022-08-12T13:06:06,116.595958,35.418664,116.59066754486328,35.41911131832218,金融保险服务,保险公司,中国人寿保险公司
B0IDC1SKOH,明智金融延信工作室,长安街与共建路交叉口南40米,山东省,370000,济宁市,537,邹城市,370883,[],金融保险服务;金融保险服务机构;金融保险机构,[],2022-08-12T02:46:27,116.88969,35.376831,116.88427367419328,35.377304796028625,金融保险服务,金融保险服务机构,金融保险机构
B0H2HOKAVJ,泰康人寿保险公司,弘道路5号弘道楼三楼,山东省,370000,济宁市,537,曲阜市,370881,[],金融保险服务;金融保险服务机构;金融保险机构,[],2022-08-11T12:52:57,116.998404,35.586064,116.99268635904258,35.58620569900101,金融保险服务,金融保险服务机构,金融保险机构
B0IDZLCN96,中国民生银行(济宁兖州支行),九州东路与纸坊街交叉口东100米,山东省,370000,济宁市,537,兖州区,370812,0537-3126659,金融保险服务;银行;中国民生银行,[],2022-08-11T04:00:53,116.820332,35.550708,116.81481036938882,35.55094953681693,金融保险服务,银行,中国民生银行
B0IDURCMZN,医疗保险,两观台路与圣阳路交叉口南140米,山东省,370000,济宁市,537,曲阜市,370881,[],金融保险服务;金融保险服务机构;金融保险机构,[],2022-08-11T03:08:12,117.01386,35.585951,117.00807654527236,35.58604616461748,金融保险服务,金融保险服务机构,金融保险机构
B02190AHXU,中国工商银行24小时自助银行(汶上支行),尚书路西段388号,山东省,370000,济宁市,537,汶上县,370830,[],金融保险服务;自动提款机;中国工商银行ATM,"[{'title': [], 'url': 'http://store.is.autonavi.com/showpic/e065a4cf8f4ff980723d1adbf3c54003'}, {'title': [], 'url': 'http://store.is.autonavi.com/showpic/eb46c70778ab04216d5ca39415369819'}]",2022-08-08T18:30:01,116.490104,35.728049,116.48453688766476,35.728093915843864,金融保险服务,自动提款机,中国工商银行ATM
B0I14H81LH,中国人寿财产保险股份有限公司,圣泽大街与105国道交叉口西420米,山东省,370000,济宁市,537,汶上县,370830,[],金融保险服务;金融保险服务机构;金融保险机构,[],2022-08-06T01:29:27,116.512758,35.718391,116.50727294017769,35.71850760938247,金融保险服务,金融保险服务机构,金融保险机构
B0I14H8NOH,车辆保险超市,洸河路与古槐路交叉口西北40米,山东省,370000,济宁市,537,任城区,370811,[],金融保险服务;金融保险服务机构;金融保险机构,[],2022-08-06T01:27:47,116.58045,35.420495,116.5751547936978,35.42093437618846,金融保险服务,金融保险服务机构,金融保险机构
B02190AFFN,中国邮政储蓄银行(大律营业所),张庄镇大律,山东省,370000,济宁市,537,邹城市,370883,0537-5790103,金融保险服务;银行;中国邮政储蓄银行,[],2022-08-05T13:16:08,117.314668,35.365189,117.30872245405344,35.36541431585995,金融保险服务,银行,中国邮政储蓄银行
B0FFFGV6KO,邹城农村商业银行(昌平路支行),宏达路与昌平山路交叉口东北50米,山东省,370000,济宁市,537,邹城市,370883,0537-5214910,金融保险服务;银行;农村商业银行,"[{'title': [], 'url': 'http://store.is.autonavi.com/showpic/f76df9953b6009ab496a631c8c407453'}, {'title': [], 'url': 'http://store.is.autonavi.com/showpic/567a4218a3102e78f3952e37'}, {'title': [], 'url': 'http://store.is.autonavi.com/showpic/567a4218a3102e78f3952e39'}]",2022-08-05T13:12:38,116.952416,35.4115,116.94689597693883,35.41189089946888,金融保险服务,银行,农村商业银行
B0FFGG76OJ,济宁市中小企业转贷服务中心,洗河街道武泰闸路6号金泰花园B座,山东省,370000,济宁市,537,任城区,370811,[],金融保险服务;金融保险服务机构;金融保险机构,"[{'title': [], 'url': 'http://store.is.autonavi.com/showpic/568100dda3104d32a82543ef'}, {'title': [], 'url': 'http://store.is.autonavi.com/showpic/568100dba3104d32a82543df'}, {'title': [], 'url': 'http://store.is.autonavi.com/showpic/01877ec7bb45288481b62ce8f1dbff76'}]",2022-08-04T13:14:29,116.626518,35.424749,116.62119833129012,35.42517417979192,金融保险服务,金融保险服务机构,金融保险机构
B0FFH90IJ5,中华保险公司,高新技术开发区润华汽车广场,山东省,370000,济宁市,537,任城区,370811,[],金融保险服务;金融保险服务机构;金融保险机构,[],2022-08-02T12:40:38,116.674862,35.437744,116.66942777540834,35.438078155569485,金融保险服务,金融保险服务机构,金融保险机构
B0IDAH0PYA,中国人民人寿保险大股东有限公司济宁市泗水支公司,光明路与青年路和平路东北80米,山东省,370000,济宁市,537,泗水县,370831,[],金融保险服务;保险公司;中国人民保险公司,[],2022-08-02T03:17:01,117.275268,35.649926,117.2693764780062,35.650010434977695,金融保险服务,保险公司,中国人民保险公司
B0FFK4Y5R5,中国人寿,鱼城镇,山东省,370000,济宁市,537,鱼台县,370827,[],金融保险服务;保险公司;中国人寿保险公司,"[{'title': [], 'url': 'http://store.is.autonavi.com/showpic/5ba23d6f02e5aebb5219ed98728bc1c0'}]",2022-08-02T02:05:20,116.471453,34.939019,116.46590351285086,34.939692557507314,金融保险服务,保险公司,中国人寿保险公司
B0IR212CP6,济宁银行惠农金服助农取款点,青年街与中心路交叉口西320米,山东省,370000,济宁市,537,金乡县,370828,[],金融保险服务;金融保险服务机构;金融保险机构,[],2022-08-01T23:02:07,116.194671,34.952998,116.18911583092289,34.9536916177567,金融保险服务,金融保险服务机构,金融保险机构
B0FFID44DR,中太安康保险代理有限公司兖州分公司,酒仙桥街道瑞士豪庭7号楼,山东省,370000,济宁市,537,兖州区,370812,[],金融保险服务;保险公司;保险公司,"[{'title': [], 'url': 'http://store.is.autonavi.com/showpic/6912560d6439b733a31ea91488474cf3'}]",2022-08-01T21:31:24,116.843698,35.549459,116.83821778018005,35.54974469793309,金融保险服务,保险公司,保险公司
B0IATNE3XH,齐商银行,狄园街与柳行巷交叉口东南60米,山东省,370000,济宁市,537,任城区,370811,[],金融保险服务;银行;银行,[],2022-08-01T20:40:29,116.577106,35.394317,116.57181065259792,35.39477523798667,金融保险服务,银行,银行
B0FFHGP6AO,鱼台农商银行(鱼城支行),346省道附近,山东省,370000,济宁市,537,鱼台县,370827,[],金融保险服务;银行;农村商业银行,"[{'title': [], 'url': 'http://store.is.autonavi.com/showpic/2d219b735ed1bea9316b5f8f29c9a152'}, {'title': [], 'url': 'http://store.is.autonavi.com/showpic/5b5e82c0c158885b00aa001ce5626857'}]",2022-08-01T15:52:27,116.470326,34.932878,116.46477353677469,34.93355538802226,金融保险服务,银行,农村商业银行
B0IDM9Y6LU,英华保险,兴鱼大道与观鱼大道交叉口西南100米,山东省,370000,济宁市,537,鱼台县,370827,[],金融保险服务;保险公司;保险公司,[],2022-08-01T06:35:16,116.625498,35.009057,116.6202214478826,35.009901928131114,金融保险服务,保险公司,保险公司
B0IDP7RJJL,枣庄银行24小时自助银行,建设北路与呈祥大道交叉口东40米,山东省,370000,济宁市,537,嘉祥县,370829,[],金融保险服务;自动提款机;自动提款机,"[{'title': [], 'url': 'http://store.is.autonavi.com/showpic/85f197a92f62db9ea1ae8ba61d5065c7'}]",2022-08-01T05:38:54,116.338106,35.406576,116.33246532360468,35.40674010300442,金融保险服务,自动提款机,自动提款机
B02190AC4H,中国邮政储蓄银行(田黄储蓄所),田黄镇驻地,山东省,370000,济宁市,537,邹城市,370883,0537-5770102,金融保险服务;银行;中国邮政储蓄银行,"[{'title': [], 'url': 'http://store.is.autonavi.com/showpic/60750f30c0a315f2ac18a4dde56e9c6f'}]",2022-07-31T12:34:42,117.269478,35.453148,117.26361605750972,35.45336338384906,金融保险服务,银行,中国邮政储蓄银行
B0FFLHM9O2,惠祥农商银行,马村镇马东村,山东省,370000,济宁市,537,嘉祥县,370829,0537-6441239,金融保险服务;银行;农村商业银行,"[{'title': [], 'url': 'http://store.is.autonavi.com/showpic/1adcd7dfa703b5853f71658cb9a7ac04'}]",2022-07-27T15:15:59,116.281246,35.497577,116.27570135106431,35.49776715043302,金融保险服务,银行,农村商业银行
B0IAFUA43Q,天风证券股份有限公司济宁建设北路证券营业部,建设北路124号,山东省,370000,济宁市,537,任城区,370811,[],金融保险服务;金融保险服务机构;金融保险机构,[],2022-07-27T02:46:18,116.595538,35.422006,116.59024726436414,35.42245057291287,金融保险服务,金融保险服务机构,金融保险机构
B0IA2Z59VV,信泰财务,新天地小区6号楼(写字楼)815室,山东省,370000,济宁市,537,曲阜市,370881,15763761234,金融保险服务;金融保险服务机构;金融保险机构,[],2022-07-26T02:26:17,116.946399,35.589691,116.94087895001174,35.58996820775817,金融保险服务,金融保险服务机构,金融保险机构
B0FFIBAOH7,中国工商银行(孝贤大道),孝贤大道与建设路交叉口东南100米,山东省,370000,济宁市,537,鱼台县,370827,[],金融保险服务;银行;中国工商银行,[],2022-07-26T00:38:35,116.650632,35.007125,116.64530398782524,35.0079354878312,金融保险服务,银行,中国工商银行
B0IRL1Q6LU,人民人寿保险公司,交通路17号,山东省,370000,济宁市,537,梁山县,370832,[],金融保险服务;金融保险服务机构;金融保险机构,[],2022-07-25T20:47:53,116.083939,35.797578,116.07809703302728,35.79745290629177,金融保险服务,金融保险服务机构,金融保险机构
B0IA370D00,正瀚金融,联卡路与海川路交叉口东北160米,山东省,370000,济宁市,537,兖州区,370812,[],金融保险服务;金融保险服务机构;金融保险机构,[],2022-07-25T02:57:25,116.703016,35.416372,116.69751272355462,35.41667318498815,金融保险服务,金融保险服务机构,金融保险机构
B02190AHQL,微山农商银行(戚城分社),戚城街238号,山东省,370000,济宁市,537,微山县,370826,0537-8222924,金融保险服务;银行;农村商业银行,"[{'title': [], 'url': 'http://store.is.autonavi.com/showpic/517d1e05b69ba37336843bfb28784678'}, {'title': [], 'url': 'http://store.is.autonavi.com/showpic/d9ae8cc8dd1bdd1d391bed5991f989f1'}]",2022-07-24T13:55:52,117.11974,34.809975,117.11381604848796,34.81068482279509,金融保险服务,银行,农村商业银行
B0IASZH3T8,嘉祥县国有资产投资控股有限公司,244省道与园兴路交叉口东南60米,山东省,370000,济宁市,537,嘉祥县,370829,[],金融保险服务;金融保险服务机构;金融保险机构,[],2022-07-23T02:15:56,116.325019,35.374193,116.319409790177,35.374409536872825,金融保险服务,金融保险服务机构,金融保险机构
B0IR4134LJ,新华保险公司,新兖镇新百汇A座1层,山东省,370000,济宁市,537,兖州区,370812,[],金融保险服务;保险公司;新华人寿保险公司,[],2022-07-22T03:09:41,116.794612,35.558343,116.7890486273867,35.558536047795776,金融保险服务,保险公司,新华人寿保险公司
B0FFINBKV2,德信和保险,337省道东50米,山东省,370000,济宁市,537,梁山县,370832,[],金融保险服务;保险公司;保险公司,[],2022-07-21T16:15:20,116.173831,35.713665,116.16814357307236,35.71366135299552,金融保险服务,保险公司,保险公司
B0FFIB1LXU,中国工商银行小企业金融业务中心,岗山中路,山东省,370000,济宁市,537,邹城市,370883,[],金融保险服务;银行;中国工商银行,[],2022-07-20T16:35:49,116.980172,35.40162,116.97455059670602,35.401948081082885,金融保险服务,银行,中国工商银行
B0IARD4CLN,中国工商银行邹城接驾山支行,接驾山路1087号,山东省,370000,济宁市,537,邹城市,370883,[],金融保险服务;银行;中国工商银行,[],2022-07-20T03:44:19,117.01648,35.413642,117.01070405349525,35.4138514859788,金融保险服务,银行,中国工商银行
B0FFIZ3YZC,枣庄银行小流店惠农点,家家乐超市东侧210米,山东省,370000,济宁市,537,任城区,370811,13563702448,金融保险服务;金融保险服务机构;金融保险机构,[],2022-07-19T23:20:21,116.56723,35.28052,116.56193424875414,35.28107064023395,金融保险服务,金融保险服务机构,金融保险机构
B0FFFOWVYD,中国邮政储蓄银行(微山县城市第三营业所),城后东路119-4号,山东省,370000,济宁市,537,微山县,370826,0537-8225032,金融保险服务;银行;中国邮政储蓄银行,"[{'title': [], 'url': 'http://store.is.autonavi.com/showpic/71ee8acc8934d36fba1a0aa8e8d8fa5d'}]",2022-07-17T22:57:46,117.138496,34.812065,117.132588778839,34.812794658676445,金融保险服务,银行,中国邮政储蓄银行
B0FFFZKND4,洼陡二村农民金融自助服务中心,城前镇244省道洼陡二村,山东省,370000,济宁市,537,邹城市,370883,[],金融保险服务;金融保险服务机构;金融保险机构,[],2022-07-15T16:39:47,117.431059,35.303091,117.42496937985496,35.3032737519733,金融保险服务,金融保险服务机构,金融保险机构
B0IAHH577J,中国工程建设银行(九州西路支行),龙桥街道幸福里商业街S8号楼商业活动房,山东省,370000,济宁市,537,兖州区,370812,[],金融保险服务;银行;银行,"[{'title': [], 'url': 'http://store.is.autonavi.com/showpic/ca93ceb182b7196b1b0214a908e01eaf'}, {'title': [], 'url': 'http://store.is.autonavi.com/showpic/734d19af3cffd47e13f427f5cbfa09bb'}, {'title': [], 'url': 'http://store.is.autonavi.com/showpic/02c0f301fe131c50645940c14b62946d'}]",2022-07-15T02:28:35,116.772096,35.549684,116.76651234365664,35.549856745982346,金融保险服务,银行,银行
B0IR413YB6,太平洋保险,太白路新华大厦一楼,山东省,370000,济宁市,537,任城区,370811,[],金融保险服务;金融保险服务机构;金融保险机构,[],2022-07-15T01:13:28,116.559872,35.4077,116.55455132661102,35.40812481882385,金融保险服务,金融保险服务机构,金融保险机构
B0G2DSLTEM,中国农业银行(徐集办事处),山东省济宁市梁山县徐集镇政府西100米路北,山东省,370000,济宁市,537,梁山县,370832,0537-7701008,金融保险服务;银行;中国农业银行,"[{'title': [], 'url': 'http://store.is.autonavi.com/showpic/0bb40dd1fa59b619f204ff81352da9a6'}]",2022-07-14T15:14:38,116.203356,35.692115,116.1977446151734,35.69217256876925,金融保险服务,银行,中国农业银行
B02190AGUB,中国人保财险,夏镇戚城街61号,山东省,370000,济宁市,537,微山县,370826,[],金融保险服务;保险公司;中国人民保险公司,"[{'title': [], 'url': 'http://store.is.autonavi.com/showpic/fee8133e13b728830950dc20a42ce90e'}]",2022-07-13T16:34:29,117.120002,34.81709,117.11407742829064,34.81779256801858,金融保险服务,保险公司,中国人民保险公司
B02190XSOC,中国太平洋人寿保险股份有限公司,夏镇街道戚城街30号,山东省,370000,济宁市,537,微山县,370826,[],金融保险服务;保险公司;中国太平洋保险,"[{'title': [], 'url': 'http://store.is.autonavi.com/showpic/fa36d8d1ead6e05e05606065a6bee41a'}]",2022-07-13T16:25:18,117.120865,34.820688,117.11494052320018,34.82138753934359,金融保险服务,保险公司,中国太平洋保险
B0IA3DWP4W,利源财富,105国道西北侧,山东省,370000,济宁市,537,金乡县,370828,[],金融保险服务;金融保险服务机构;金融保险机构,"[{'title': [], 'url': 'http://store.is.autonavi.com/showpic/d5b108a802114206d3f5d70157b73bbf'}]",2022-07-04T10:58:15,116.246532,35.005526,116.241050512188,35.006212161663434,金融保险服务,金融保险服务机构,金融保险机构
B0IAK7G7EI,个人征信自助查询工商银行邹城铁西支行,康复路199号,山东省,370000,济宁市,537,邹城市,370883,[],金融保险服务;金融保险服务机构;金融保险机构,[],2022-07-04T01:32:14,116.951247,35.400069,116.94573186126378,35.40047188342746,金融保险服务,金融保险服务机构,金融保险机构
B0IA67EULM,安鼎融资房车贷款有限公司,建设东路中段光通大厦,山东省,370000,济宁市,537,兖州区,370812,4000166002,金融保险服务;金融保险服务机构;金融保险机构,[],2022-07-02T06:41:14,116.832968,35.554988,116.82746857857248,35.55525047910402,金融保险服务,金融保险服务机构,金融保险机构
B0G2XSK9KV,中国建设银行24小时自助银行(泗水支行),丰收路与连菏线交叉路口南侧(绿景国际),山东省,370000,济宁市,537,泗水县,370831,[],金融保险服务;自动提款机;中国建设银行ATM,"[{'title': [], 'url': 'http://store.is.autonavi.com/showpic/567a5d2ba3102e78f396ef8a'}]",2022-07-02T02:38:59,117.274866,35.655705,117.26897446263308,35.65578686135321,金融保险服务,自动提款机,中国建设银行ATM
B0FFIUCR7D,日益盛(济宁塘湖店),启蒙早教亲子乐园西北侧,山东省,370000,济宁市,537,微山县,370826,[],金融保险服务;金融保险服务机构;金融保险机构,[],2022-07-02T02:37:28,117.308824,34.687998,117.30296596005267,34.688942651175665,金融保险服务,金融保险服务机构,金融保险机构
B02190XSOF,中国人民保险集团股份有限公司(兴隆庄镇三农营销服务部),东桥南路320号,山东省,370000,济宁市,537,兖州区,370812,0537-3412951,金融保险服务;保险公司;中国人民保险公司,"[{'title': [], 'url': 'http://store.is.autonavi.com/showpic/2db13c83f3a4d59447fe96d77b8a5139'}, {'title': [], 'url': 'http://store.is.autonavi.com/showpic/ab7604e3d613d86a747bf82ccc0e6c90'}]",2022-07-02T02:37:11,116.846179,35.518238,116.84070609094448,35.51854879224572,金融保险服务,保险公司,中国人民保险公司
B0FFK60R2T,中国邮政储蓄银行24小时自助银行(兖州区支行),建设东路东方中学南侧,山东省,370000,济宁市,537,兖州区,370812,[],金融保险服务;自动提款机;中国邮政储蓄银行ATM,"[{'title': [], 'url': 'http://store.is.autonavi.com/showpic/435b1058ec3300c52db4eab42852a216'}]",2022-07-02T02:35:49,116.829641,35.555644,116.8241355513608,35.55589982385502,金融保险服务,自动提款机,中国邮政储蓄银行ATM
B0HKH7D6UY,鱼台农商银行,湖凌二路微湖警苑东北侧约60米,山东省,370000,济宁市,537,鱼台县,370827,0537-6216338,金融保险服务;银行;农村商业银行,"[{'title': [], 'url': 'http://store.is.autonavi.com/showpic/b5b9c60a170abed35bd607042c90cdff'}]",2022-07-02T02:32:10,116.649164,35.010432,116.64383918294745,35.01124131977198,金融保险服务,银行,农村商业银行
B0FFFGTCYC,邹城农商银行(怡博园支行),平阳东路附近,山东省,370000,济宁市,537,邹城市,370883,[],金融保险服务;银行;农村商业银行,"[{'title': [], 'url': 'http://store.is.autonavi.com/showpic/7f2796c255c69244186f27325cd81c2b'}]",2022-07-02T02:31:35,116.983837,35.400569,116.97820062910164,35.400887314352374,金融保险服务,银行,农村商业银行
B021909246,中国人民银行(金乡县支行),文峰东路19号诚信超市往东,山东省,370000,济宁市,537,金乡县,370828,[],金融保险服务;银行;中国人民银行,"[{'title': [], 'url': 'http://store.is.autonavi.com/showpic/3b088263d38809c47050966d0cbcf50d'}, {'title': [], 'url': 'http://store.is.autonavi.com/showpic/b3dc80da9821a359c3b2f71938e2ee8f'}]",2022-07-02T02:26:28,116.319061,35.071183,116.31349563025364,35.0717176791241,金融保险服务,银行,中国人民银行
B02190495D,中国人寿,黄王路黄金庄园北侧,山东省,370000,济宁市,537,兖州区,370812,[],金融保险服务;保险公司;中国人寿保险公司,"[{'title': [], 'url': 'http://store.is.autonavi.com/showpic/e11679da8f84b65dd479bc913b8d1254'}]",2022-07-02T02:22:25,116.721042,35.461914,116.71549804044436,35.462155529723,金融保险服务,保险公司,中国人寿保险公司
B0H3YC5ZJG,中国银联专业信用卡服务,礼宾路与林门路交叉口南220米,山东省,370000,济宁市,537,曲阜市,370881,[],金融保险服务;金融保险服务机构;金融保险机构,[],2022-07-02T02:19:03,116.983815,35.611807,116.97815648459762,35.61197757145781,金融保险服务,金融保险服务机构,金融保险机构
B0FFGIL5MX,中国农业银行(棉纺厂分理处),中都大街618号,山东省,370000,济宁市,537,汶上县,370830,[],金融保险服务;银行;中国农业银行,"[{'title': [], 'url': 'http://store.is.autonavi.com/showpic/567a554ca3102e78f395ecc4'}, {'title': [], 'url': 'http://store.is.autonavi.com/showpic/567a554ca3102e78f395ecc6'}]",2022-07-02T02:18:50,116.493848,35.724442,116.48829467573502,35.724499579370026,金融保险服务,银行,中国农业银行
B0FFH0XP8N,中国人民银行(济宁市中心支行),吴泰闸东路129号,山东省,370000,济宁市,537,任城区,370811,[],金融保险服务;银行;中国人民银行,"[{'title': [], 'url': 'http://store.is.autonavi.com/showpic/63a09ecc7a2ad5e168ce0f5f76aa2667'}, {'title': [], 'url': 'http://store.is.autonavi.com/showpic/568100e3a3104d32a82545ce'}]",2022-07-02T02:07:22,116.627196,35.425338,116.62187513778336,35.42576192702081,金融保险服务,银行,中国人民银行
B0FFKEH290,中国人寿任城区支公司,共青团路鑫声玉城北侧,山东省,370000,济宁市,537,任城区,370811,[],金融保险服务;金融保险服务机构;金融保险机构,"[{'title': [], 'url': 'http://store.is.autonavi.com/showpic/a3553774944c97df5d17f3e46282ca52'}]",2022-07-02T02:07:00,116.588854,35.439447,116.58356105312642,35.43987606603446,金融保险服务,金融保险服务机构,金融保险机构
B0G3VSFNE4,遮蔽普惠,仙营路与共青团路中山北路东南60米,山东省,370000,济宁市,537,任城区,370811,[],金融保险服务;金融保险服务机构;金融保险机构,[],2022-07-02T02:06:21,116.588875,35.423279,116.5835836787173,35.42372096909845,金融保险服务,金融保险服务机构,金融保险机构
B0FFF0ELS5,中国农业银行(济宁兖州支行),建设中路133-1号,山东省,370000,济宁市,537,兖州区,370812,[],金融保险服务;银行;中国农业银行,"[{'title': [], 'url': 'http://store.is.autonavi.com/showpic/965d1cd0efbc12af622bfc5f32b020fc'}, {'title': [], 'url': 'http://store.is.autonavi.com/showpic/e396509f81f789290be1e00a3db6bf9f'}]",2022-07-02T02:00:43,116.797582,35.556541,116.79202284131058,35.556739627012135,金融保险服务,银行,中国农业银行
B0FFHLYJ88,中国建设银行24小时自助银行(济宁新世纪支行),琵琶山路31-6号,山东省,370000,济宁市,537,任城区,370811,[],金融保险服务;自动提款机;中国建设银行ATM,"[{'title': [], 'url': 'http://store.is.autonavi.com/showpic/fd19dce9c05d28853d3b0c424edee5e2'}]",2022-07-02T01:59:17,116.607419,35.424457,116.6021227710766,35.424897569775545,金融保险服务,自动提款机,中国建设银行ATM
B0FFKG22UE,中国建设银行裕农通普惠金融服务点,孔子大道与崇信路交叉口南380米,山东省,370000,济宁市,537,曲阜市,370881,[],金融保险服务;金融保险服务机构;金融保险机构,[],2022-07-02T01:58:51,117.055327,35.551784,117.04939651612366,35.55179621244376,金融保险服务,金融保险服务机构,金融保险机构
B0HUTSY5AH,山东大宗商品期货公司,金曼克大道与百兴路交叉口西60米,山东省,370000,济宁市,537,金乡县,370828,[],金融保险服务;金融保险服务机构;金融保险机构,"[{'title': [], 'url': 'http://store.is.autonavi.com/showpic/208dc50798b3ec8df8d2b4746dcc3e25'}, {'title': [], 'url': 'http://store.is.autonavi.com/showpic/326b33cb4d0ff0a433040d59dd81018d'}]",2022-07-02T01:50:57,116.296286,35.079936,116.290763102653,35.08050062872511,金融保险服务,金融保险服务机构,金融保险机构
B02190ABBL,中国农业银行24小时自助银行(廿里铺分理处),京澳线大风车艺术园东南侧约170米,山东省,370000,济宁市,537,任城区,370811,[],金融保险服务;自动提款机;中国农业银行ATM,[],2022-07-02T01:50:53,116.539465,35.495875,116.53408786504234,35.49619033283939,金融保险服务,自动提款机,中国农业银行ATM
B0FFFZJOJI,中国邮政储蓄银行(泗水县泉源支行),连菏线圣源酒店东侧,山东省,370000,济宁市,537,泗水县,370831,0537-4222229,金融保险服务;银行;中国邮政储蓄银行,"[{'title': [], 'url': 'http://store.is.autonavi.com/showpic/3a96d20c8c00dce156c8b9e22993557f'}]",2022-07-02T01:50:51,117.260268,35.657797,117.25439402067848,35.65788758252907,金融保险服务,银行,中国邮政储蓄银行
B0IAPDO6KV,职工生育杠杆,朱蒙医院东门旁,山东省,370000,济宁市,537,任城区,370811,[],金融保险服务;金融保险服务机构;金融保险机构,[],2022-07-02T01:39:20,116.564047,35.418738,116.55873248692228,35.41916030717494,金融保险服务,金融保险服务机构,金融保险机构
B02190145B,中国农业银行(新驿办事处),府东街新驿镇政府东北侧约50米,山东省,370000,济宁市,537,兖州区,370812,0537-3852324,金融保险服务;银行;中国农业银行,"[{'title': [], 'url': 'http://store.is.autonavi.com/showpic/75c983c1356a12e41a58ae6f5e6df1a8'}, {'title': [], 'url': 'http://store.is.autonavi.com/showpic/72a11e252993f90949974eb0668b8602'}, {'title': [], 'url': 'http://store.is.autonavi.com/showpic/33d9c4bd4f5b1ccdf6dd683df3470511'}]",2022-07-02T01:36:52,116.684086,35.647262,116.67860574646984,35.6474420843943,金融保险服务,银行,中国农业银行
B02190AEQF,中国建设银行(邹城支行),平阳西路836号,山东省,370000,济宁市,537,邹城市,370883,0537-5212459;0537-5251781;0537-5251861,金融保险服务;银行;中国建设银行,"[{'title': [], 'url': 'http://store.is.autonavi.com/showpic/ad904fe01f158dc1e0f4411ea32722aa'}, {'title': [], 'url': 'http://store.is.autonavi.com/showpic/d8a5f21e53350053419a9c144a772d53'}]",2022-07-02T01:33:53,116.968004,35.400199,116.96243063874468,35.40056184753046,金融保险服务,银行,中国建设银行
B02190AHWI,中共山东微山农村商业银行委员会,奎文东路30号,山东省,370000,济宁市,537,微山县,370826,[],金融保险服务;银行相关;银行相关,"[{'title': [], 'url': 'http://store.is.autonavi.com/showpic/ee4bc05a69d71a596e4e470819bef555'}]",2022-07-02T01:33:10,117.140099,34.805379,117.1341945213225,34.80611802135669,金融保险服务,银行相关,银行相关
B021902965,中国工商银行(老东门分理处),酒仙桥南路11号(新苑小区东北角),山东省,370000,济宁市,537,兖州区,370812,0537-3410014,金融保险服务;银行;中国工商银行,"[{'title': [], 'url': 'http://store.is.autonavi.com/showpic/d5df6ea597f2351a59499c69152ab77f'}, {'title': [], 'url': 'http://store.is.autonavi.com/showpic/3592b61d6096044810495c8b5f90bd29'}, {'title': [], 'url': 'http://store.is.autonavi.com/showpic/567a43bda3102e78f3953f6f'}]",2022-07-02T01:32:37,116.83838,35.55011,116.83289063207935,35.55038563895254,金融保险服务,银行,中国工商银行
B0FFJRH04G,浦发银行24小时自助银行(兖州支行),建设中路北100米,山东省,370000,济宁市,537,兖州区,370812,[],金融保险服务;自动提款机;上海浦东发展银行ATM,"[{'title': [], 'url': 'http://store.is.autonavi.com/showpic/ad22492ab3b35b721c4ef4ca000e7785'}, {'title': [], 'url': 'http://store.is.autonavi.com/showpic/ed98837c9725f0763fe03ed92f7f5e11'}]",2022-07-02T01:31:22,116.793451,35.5566,116.7878863019734,35.55679246993928,金融保险服务,自动提款机,上海浦东发展银行ATM
B0FFKG5MVU,聊城银行(金乡奎星路支行),奎星路望湖绿苑,山东省,370000,济宁市,537,金乡县,370828,[],金融保险服务;银行;银行,"[{'title': [], 'url': 'http://store.is.autonavi.com/showpic/20f848c4e89ae53e2e7ed44385b0ad8e'}]",2022-07-02T01:30:37,116.317087,35.066781,116.3115261937618,35.06732427282095,金融保险服务,银行,银行
B02190AI9H,中国银行业监督管理委员会济宁监管分局,红星中路20号,山东省,370000,济宁市,537,任城区,370811,[],金融保险服务;银行相关;银行相关,"[{'title': [], 'url': 'http://store.is.autonavi.com/showpic/5684e602a310f9ed8809be2a'}]",2022-07-02T01:13:29,116.587316,35.414064,116.58202513389286,35.41451281168437,金融保险服务,银行相关,银行相关
B02190B57C,泰康人寿,318省道与府前路交叉口北140米,山东省,370000,济宁市,537,鱼台县,370827,[],金融保险服务;保险公司;保险公司,[],2022-07-02T01:11:04,116.764721,34.93921,116.75919759037724,34.93996511627306,金融保险服务,保险公司,保险公司
B0FFG57UY4,招商银行24小时自助银行(济宁运河支行),洸河路60号,山东省,370000,济宁市,537,任城区,370811,[],金融保险服务;自动提款机;招商银行ATM,"[{'title': [], 'url': 'http://store.is.autonavi.com/showpic/79ca4d086b7ab32c98b46f877493fe36'}]",2022-07-02T01:09:06,116.608447,35.42007,116.60315040356102,35.42051366342341,金融保险服务,自动提款机,招商银行ATM
B0FFFGTMLB,中信建投证券,济宁高新区吴泰闸路冠亚星城C1座152号,山东省,370000,济宁市,537,任城区,370811,[],金融保险服务;证券公司;证券营业厅,"[{'title': [], 'url': 'http://store.is.autonavi.com/showpic/b7faae1569cc0761c64448e484ec6f3e'}, {'title': [], 'url': 'http://store.is.autonavi.com/showpic/568100dea3104d32a825443e'}]",2022-07-02T01:05:43,116.629033,35.424711,116.62370903376808,35.42513324946423,金融保险服务,证券公司,证券营业厅
B02190927E,中国工商银行(夏镇分理处),奎文路22号,山东省,370000,济宁市,537,微山县,370826,0537-8222712,金融保险服务;银行;中国工商银行,"[{'title': [], 'url': 'http://store.is.autonavi.com/showpic/d7c1bcbca50fcd765374587f5cbcb585'}]",2022-07-02T01:05:17,117.130407,34.806722,117.1244913944491,34.80744642896438,金融保险服务,银行,中国工商银行
B0FFFZJEHV,济宁儒商村镇银行24小时自助银行(安居支行),车站西路八里庙小区东北侧约210米,山东省,370000,济宁市,537,任城区,370811,[],金融保险服务;自动提款机;自动提款机,"[{'title': [], 'url': 'http://store.is.autonavi.com/showpic/894bcf8156f9b11c61930fbda44b6aee'}]",2022-07-02T01:00:35,116.549746,35.376383,116.54440724408292,35.37681560202886,金融保险服务,自动提款机,自动提款机
B0FFH03C9Q,中国建设银行(任城支行),洸河路48号银河大厦1层,山东省,370000,济宁市,537,任城区,370811,0537-2937388;0537-2937383,金融保险服务;银行;中国建设银行,"[{'title': [], 'url': 'http://store.is.autonavi.com/showpic/9bcb4daa433e3de35beebb971bed69df'}]",2022-07-02T01:00:20,116.61256,35.420118,116.60725962851824,35.42055936966888,金融保险服务,银行,中国建设银行
B0GKKL02DK,邹城农商银行普惠金融服务点,仙桥小学东南侧80米,山东省,370000,济宁市,537,邹城市,370883,[],金融保险服务;金融保险服务机构;金融保险机构,[],2022-07-02T00:58:39,117.171258,35.40667,117.16533939621564,35.406836127990736,金融保险服务,金融保险服务机构,金融保险机构
B02190ABDH,济宁农商银行(开发区支行),洸河路46-1号,山东省,370000,济宁市,537,任城区,370811,0537-2366480,金融保险服务;银行;农村商业银行,"[{'title': [], 'url': 'http://store.is.autonavi.com/showpic/eb40ad08c87ad9ce3d22d4e867c37d62'}]",2022-07-02T00:58:18,116.613871,35.420278,116.6085692325681,35.42071837949639,金融保险服务,银行,农村商业银行
B02190A99M,兖州农商银行(新兖支行),中御桥南路101号,山东省,370000,济宁市,537,兖州区,370812,0537-3411934,金融保险服务;银行;农村商业银行,"[{'title': [], 'url': 'http://store.is.autonavi.com/showpic/9d43e0992a35db133b67c833c75da5bf'}, {'title': [], 'url': 'http://store.is.autonavi.com/showpic/567a5cb7a3102e78f396d078'}, {'title': [], 'url': 'http://store.is.autonavi.com/showpic/567a5cb7a3102e78f396d07c'}]",2022-07-02T00:57:48,116.827526,35.550095,116.82201732224506,35.550350389646205,金融保险服务,银行,农村商业银行
B0FFHS7JY3,山东梁山民丰村镇银行,馆驿村馆驿镇第一中学对过,山东省,370000,济宁市,537,梁山县,370832,[],金融保险服务;银行;银行,"[{'title': [], 'url': 'http://store.is.autonavi.com/showpic/4d600d9409920705040e34d548c27a48'}]",2022-07-02T00:53:56,116.246512,35.795501,116.2409494631558,35.79555395511906,金融保险服务,银行,银行
B0H2KD8A36,中国邮政储蓄银行(曲阜市支行),全福路81号万家都市花园,山东省,370000,济宁市,537,曲阜市,370881,0537-4414370,金融保险服务;银行;中国邮政储蓄银行,"[{'title': [], 'url': 'http://store.is.autonavi.com/showpic/434920a36dbd4d9a2737430492ac4853'}]",2022-07-02T00:50:55,116.980455,35.581884,116.97481350895448,35.582081712174585,金融保险服务,银行,中国邮政储蓄银行
B02190AAF0,聊城银行(曲阜支行),弘路段36号,山东省,370000,济宁市,537,曲阜市,370881,0537-4897678,金融保险服务;银行;银行,"[{'title': [], 'url': 'http://store.is.autonavi.com/showpic/5102908e8f5e854e0d0a71917d25552e'}, {'title': [], 'url': 'http://store.is.autonavi.com/showpic/ef683967c264eb808fd1d29ea10d9899'}]",2022-07-02T00:49:50,116.9989,35.576148,116.99318128748224,35.57629415228322,金融保险服务,银行,银行
B0FFFV29DV,中国邮政储蓄银行(大束邮电支局),大束镇,山东省,370000,济宁市,537,邹城市,370883,0537-5570102,金融保险服务;银行;中国邮政储蓄银行,"[{'title': [], 'url': 'http://store.is.autonavi.com/showpic/d09c3368cdec7da0959bf3b96f168750'}, {'title': [], 'url': 'http://store.is.autonavi.com/showpic/915c1957de6107dc9050e028cb3d3c5a'}, {'title': [], 'url': 'http://store.is.autonavi.com/showpic/7dfb8990d241cf963234819fa6006798'}]",2022-07-02T00:47:46,117.087133,35.440017,117.08115032574965,35.440070704271065,金融保险服务,银行,中国邮政储蓄银行
B02190AHKJ,微山农商银行(昭阳分社),镇中北街384号,山东省,370000,济宁市,537,微山县,370826,0537-8226523,金融保险服务;银行;农村商业银行,"[{'title': [], 'url': 'http://store.is.autonavi.com/showpic/b9dc393845b84198eafd24737341f38d'}]",2022-07-02T00:45:12,117.12118,34.787841,117.1152592086684,34.78857514549912,金融保险服务,银行,农村商业银行
B0FFFG0BR1,中国建设银行(嘉祥支行),城建设北路79号,山东省,370000,济宁市,537,嘉祥县,370829,0537-6822650;0537-6821213,金融保险服务;银行;中国建设银行,"[{'title': [], 'url': 'http://store.is.autonavi.com/showpic/22de750800b4b0413af1402e2ff5ee54'}, {'title': [], 'url': 'http://store.is.autonavi.com/showpic/ffa936b2dc86217e569292f21719b7d4'}, {'title': [], 'url': 'http://store.is.autonavi.com/showpic/7849c1ff78af195228ef5f491edbcd7b'}]",2022-07-02T00:44:30,116.337222,35.404302,116.33158343903922,35.404469653470585,金融保险服务,银行,中国建设银行
B02190B7OQ,中国邮政储蓄银行(邹城市支行),岗山北路268号,山东省,370000,济宁市,537,邹城市,370883,[],金融保险服务;银行;中国邮政储蓄银行,"[{'title': [], 'url': 'http://store.is.autonavi.com/showpic/1515f03df9349ea192da61a440537ef4'}, {'title': [], 'url': 'http://store.is.autonavi.com/showpic/8a4c7e3022954930345cdf98432a592d'}, {'title': [], 'url': 'http://store.is.autonavi.com/showpic/2943e410ec9552bca37f72c199f21f56'}]",2022-07-02T00:44:17,116.970792,35.403437,116.9652076741194,35.403789731967784,金融保险服务,银行,中国邮政储蓄银行
B02190B09N,中泰证券,东滩路1269号,山东省,370000,济宁市,537,邹城市,370883,0537-5318077,金融保险服务;证券公司;证券公司,"[{'title': [], 'url': 'http://store.is.autonavi.com/showpic/dfdc8a04a4ba6cc6aebaf1f203e6cdc8'}]",2022-07-02T00:43:45,116.965405,35.40796,116.95984052358544,35.408323120756684,金融保险服务,证券公司,证券公司
B0FFFF4970,广发银行(济宁分行),古琴山路33号广发银行大厦,山东省,370000,济宁市,537,任城区,370811,0537-5156995;0537-5156983,金融保险服务;银行;广发银行,"[{'title': [], 'url': 'http://store.is.autonavi.com/showpic/0d250b67d9e35820abbadc17826ba03e'}, {'title': [], 'url': 'http://store.is.autonavi.com/showpic/be67109490f05f627d49d4bfd8373ca1'}]",2022-07-02T00:43:16,116.607893,35.422721,116.60259657965896,35.4231627666374,金融保险服务,银行,广发银行
B0FFFR52NJ,中国邮政储蓄银行24不间断自助银行(大束营业所),东外环邹城市农村金融业银行(大束支行)西南侧约220米,山东省,370000,济宁市,537,邹城市,370883,[],金融保险服务;自动提款机;中国邮政储蓄银行ATM,"[{'title': [], 'url': 'http://store.is.autonavi.com/showpic/cc563d1b33003dadc007beae3df55d50'}]",2022-07-02T00:42:52,117.087716,35.440808,117.0817325727365,35.440860797673075,金融保险服务,自动提款机,中国邮政储蓄银行ATM
B0HBXBPIVT,济宁银行(湖陵三路),滨湖街道湖凌三路金贤园东区门南,山东省,370000,济宁市,537,鱼台县,370827,[],金融保险服务;银行;银行,"[{'title': [], 'url': 'http://store.is.autonavi.com/showpic/be9a9ba2416d57c306bdb0822f74ea75'}]",2022-07-02T00:39:36,116.643853,35.00867,116.63854067630386,35.00949013101328,金融保险服务,银行,银行
B02190AF1P,济宁银行(邹城支行),太平东路建业园小区,山东省,370000,济宁市,537,邹城市,370883,0537-5115788,金融保险服务;银行;银行,"[{'title': [], 'url': 'http://store.is.autonavi.com/showpic/cdbe69b0507503c2c62a6dea7c077f36'}, {'title': [], 'url': 'http://store.is.autonavi.com/showpic/58fad40615f55b2b98ba60da9b352f34'}]",2022-07-02T00:36:28,116.984165,35.404318,116.97852687533616,35.40463222422276,金融保险服务,银行,银行
B0FFIBAR9Y,曲阜农商银行24小时自助银行(商城分理处),弘道路10号,山东省,370000,济宁市,537,曲阜市,370881,[],金融保险服务;自动提款机;农村商业银行ATM,[],2022-07-02T00:36:27,116.999586,35.588521,116.9938630291424,35.58865765040532,金融保险服务,自动提款机,农村商业银行ATM
B02190545F,中国农业银行(济宁任城支行),红星中路42号(市委党校对过),山东省,370000,济宁市,537,任城区,370811,0537-2907020,金融保险服务;银行;中国农业银行,"[{'title': [], 'url': 'http://store.is.autonavi.com/showpic/9cfc6c84738eca661888fd68b6e0b154'}]",2022-07-02T00:35:18,116.579343,35.414283,116.57404757091004,35.41472656655243,金融保险服务,银行,中国农业银行
B0GROB39WG,中国人寿,吉兴路金乡兴隆第一中学东北侧约110米,山东省,370000,济宁市,537,金乡县,370828,[],金融保险服务;保险公司;中国人寿保险公司,[],2022-07-02T00:33:38,116.287546,34.960665,116.28204832607324,34.96137529175766,金融保险服务,保险公司,中国人寿保险公司
B02190AF6J,中国实业银行(南屯分理处),长安街16号,山东省,370000,济宁市,537,邹城市,370883,0537-5193936,金融保险服务;银行;中国工商银行,"[{'title': [], 'url': 'http://store.is.autonavi.com/showpic/17b1546350bcf3188d985690ab367392'}, {'title': [], 'url': 'http://store.is.autonavi.com/showpic/ee3523d3933394759b1b4ed979980919'}, {'title': [], 'url': 'http://store.is.autonavi.com/showpic/0868b4b7df1a3c4c960af7a30ac4025b'}]",2022-07-02T00:30:47,116.886929,35.376429,116.88151232003344,35.37690160190758,金融保险服务,银行,中国工商银行
B0FFHLQBPT,中国建设银行(鲁城支行),贵人街123号,山东省,370000,济宁市,537,曲阜市,370881,0537-4412991,金融保险服务;银行;中国建设银行,"[{'title': [], 'url': 'http://store.is.autonavi.com/showpic/55110c9c91bd736af04b04144698ad25'}, {'title': [], 'url': 'http://store.is.autonavi.com/showpic/d30ffb2fd96803237b008a25aadc280b'}]",2022-07-02T00:28:21,116.948282,35.582312,116.9427571147373,35.58258988481461,金融保险服务,银行,中国建设银行
B021904FD7,中国农业银行(兖州王因办事处),黄王路济宁高新区王因镇人民政府东侧约90米,山东省,370000,济宁市,537,兖州区,370812,0537-3862352,金融保险服务;银行;中国农业银行,"[{'title': [], 'url': 'http://store.is.autonavi.com/showpic/374ffc3a74482121bd827f41946005d4'}, {'title': [], 'url': 'http://store.is.autonavi.com/showpic/79db769a19942b2e71c17db31aa69b85'}, {'title': [], 'url': 'http://store.is.autonavi.com/showpic/cb1f6ff7a993301f866d554e06f49268'}]",2022-07-02T00:27:30,116.775843,35.461531,116.7702707567646,35.46176871405458,金融保险服务,银行,中国农业银行
B021907848,中国银行(邹城支行),太平东路51号,山东省,370000,济宁市,537,邹城市,370883,0537-5266518;0537-5214369,金融保险服务;银行;中国银行,"[{'title': [], 'url': 'http://store.is.autonavi.com/showpic/3ca560ce5700b164266fc0cb08f1ffed'}, {'title': [], 'url': 'http://store.is.autonavi.com/showpic/72aa5e5be2cf6f0c7dc0ce6dd78b61ef'}, {'title': [], 'url': 'http://store.is.autonavi.com/showpic/567a4e3aa3102e78f395a7e9'}]",2022-07-02T00:26:00,116.981596,35.404345,116.9759684821218,35.40466669670586,金融保险服务,银行,中国银行
B02190BG9D,邹城农村零售银行(城中城支行),太平西路814号(邹城市种子管理站东),山东省,370000,济宁市,537,邹城市,370883,0537-5214487,金融保险服务;银行;农村商业银行,"[{'title': [], 'url': 'http://store.is.autonavi.com/showpic/4613f02941932a3e3eaed217611e7397'}]",2022-07-02T00:24:37,116.965662,35.404676,116.9600969161842,35.40504118713998,金融保险服务,银行,农村商业银行
B02190BAFI,金乡农商银行24小时自助银行(羊山支行),羊山镇政府,山东省,370000,济宁市,537,金乡县,370828,[],金融保险服务;自动提款机;农村商业银行ATM,"[{'title': [], 'url': 'http://store.is.autonavi.com/showpic/8fd427e66ab55eec2a4e4dcbed36fe69'}]",2022-07-02T00:21:08,116.256268,35.168861,116.2507719176053,35.16936672778254,金融保险服务,自动提款机,农村商业银行ATM
B0FFHLD7MC,济宁农商银行(吴泰闸路支行),科苑路与吴泰闸路交汇全聚德饭店斜对面,山东省,370000,济宁市,537,任城区,370811,0537-2363823;0537-6588888,金融保险服务;银行;农村商业银行,"[{'title': [], 'url': 'http://store.is.autonavi.com/showpic/3bf243df77e1e36dd28a2dd1a40cf385'}]",2022-07-02T00:20:25,116.614146,35.425304,116.60884342808151,35.42574012693017,金融保险服务,银行,农村商业银行
B02190AHXX,中国建设银行(济宁分行),红星中路30号,山东省,370000,济宁市,537,任城区,370811,0537-2937158;0537-2930156,金融保险服务;银行;中国建设银行|金融保险服务;自动提款机;中国建设银行ATM,"[{'title': [], 'url': 'http://store.is.autonavi.com/showpic/ad7dde640d487bad12cb002dc6e9b01f'}, {'title': [], 'url': 'http://store.is.autonavi.com/showpic/8b93c48de173931d3a05cac72b2bb12e'}]",2022-07-02T00:15:51,116.583708,35.414381,116.57841549243255,35.41482761436982,金融保险服务,银行,中国建设银行
B02190AFWA,中国邮政储蓄银行(清河支行),麟大道鱼台县清河镇中心小学西侧约230米,山东省,370000,济宁市,537,鱼台县,370827,0537-6013409,金融保险服务;银行;中国邮政储蓄银行,"[{'title': [], 'url': 'http://store.is.autonavi.com/showpic/27a84cd13f2f7e719e7e3a2972879a19'}]",2022-07-02T00:15:20,116.494538,35.100626,116.48905131797402,35.10118554041819,金融保险服务,银行,中国邮政储蓄银行
B0FFL5Z1FK,威海市商业银行24小时自助银行(梁山水泊支行),水泊东路沃德园小区(文化路),山东省,370000,济宁市,537,梁山县,370832,[],金融保险服务;自动提款机;农村商业银行ATM,[],2022-07-02T00:13:09,116.092606,35.79742,116.08676309750528,35.797291057966504,金融保险服务,自动提款机,农村商业银行ATM
B02190ABDG,聊城银行(开发区支行),吴泰闸路43号,山东省,370000,济宁市,537,任城区,370811,0537-2330666,金融保险服务;银行;银行,"[{'title': [], 'url': 'http://store.is.autonavi.com/showpic/28cc76fdb7aa5a4b622305d3e7eae775'}]",2022-07-02T00:12:14,116.608149,35.424752,116.60285217379452,35.425192012451106,金融保险服务,银行,银行
B0GD7CAE5E,邹城市农村商业银行(大束支行),大束镇政府对面,山东省,370000,济宁市,537,邹城市,370883,0537-5570357,金融保险服务;银行;农村商业银行,[],2022-07-02T00:09:03,117.08891,35.441452,117.08292519606772,35.44150375676292,金融保险服务,银行,农村商业银行
B0IA2Z3S7F,医疗保险公司,时期花园北门东90米,山东省,370000,济宁市,537,金乡县,370828,[],金融保险服务;金融保险服务机构;金融保险机构,[],2022-07-02T00:07:36,116.317765,35.085832,116.3122008384823,35.08635289066067,金融保险服务,金融保险服务机构,金融保险机构
B0FFIDHM8Q,济宁农商银行(高新区支行),杨桥街与大禹西路交叉路口东北侧(杨柳国际新城),山东省,370000,济宁市,537,任城区,370811,0537-2080671,金融保险服务;银行;农村商业银行,"[{'title': [], 'url': 'http://store.is.autonavi.com/showpic/f451449ecc69b25362cbf6d9f1377bc4'}]",2022-07-02T00:06:33,116.651322,35.430128,116.64594984781338,35.43051218960976,金融保险服务,银行,农村商业银行
B0FFIHJU3D,济宁农商银行(太白湖区支行),荷花路荷花佳苑,山东省,370000,济宁市,537,任城区,370811,[],金融保险服务;银行;农村商业银行,"[{'title': [], 'url': 'http://store.is.autonavi.com/showpic/3270fecd16d4c6deef2e36bae31ade6d'}, {'title': [], 'url': 'http://store.is.autonavi.com/showpic/f1e562f293239ca1bda724f09f0d7a03'}]",2022-07-02T00:06:23,116.585382,35.384072,116.58009336451784,35.38454498507794,金融保险服务,银行,农村商业银行
B0FFHJR775,华夏保险,呈祥大道石雕广场西北侧约120米,山东省,370000,济宁市,537,嘉祥县,370829,[],金融保险服务;金融保险服务机构;金融保险机构,[],2022-07-02T00:04:53,116.362851,35.409041,116.35716243240007,35.40916094830721,金融保险服务,金融保险服务机构,金融保险机构
B0219040C7,中国农业银行(疃里营业所),疃里镇镇政府驻地,山东省,370000,济宁市,537,嘉祥县,370829,0537-6529159;0537-6056311,金融保险服务;银行;中国农业银行,"[{'title': [], 'url': 'http://store.is.autonavi.com/showpic/ffa050269277fa43ae98698fe15bdd6d'}]",2022-07-02T00:03:31,116.399439,35.44157,116.39371325086826,35.44163288308208,金融保险服务,银行,中国农业银行
B02190ACFI,中国农业银行(济宁分行),红星中路28号,山东省,370000,济宁市,537,任城区,370811,0537-2907406;0537-6053433,金融保险服务;银行;中国农业银行,"[{'title': [], 'url': 'http://store.is.autonavi.com/showpic/2e6e6286e8fbdf675c1eeb4aba5352d0'}, {'title': [], 'url': 'http://store.is.autonavi.com/showpic/b97cc5de4b646970a9f1d1e969f99ea0'}, {'title': [], 'url': 'http://store.is.autonavi.com/showpic/3848f321491f1a5ce742ff58d358f181'}]",2022-07-02T00:03:00,116.584803,35.414266,116.57951107033428,35.414713358655,金融保险服务,银行,中国农业银行
B0FFK4EMSS,邹城农商银行普惠金融增值点,城前西路1339-1411号郊外,山东省,370000,济宁市,537,邹城市,370883,[],金融保险服务;银行相关;银行相关,[],2022-07-02T00:02:13,116.964661,35.376236,116.95910255123412,35.376627888746484,金融保险服务,银行相关,银行相关
B0FFGZVNME,中国护佑人寿保险股份有限公司,枣曹路与广场路和平路东60米,山东省,370000,济宁市,537,金乡县,370828,[],金融保险服务;保险公司;中国平安保险公司,"[{'title': [], 'url': 'http://store.is.autonavi.com/showpic/db787789bfb1bfb3f2a8e4e4cdb2b8e7'}, {'title': [], 'url': 'http://store.is.autonavi.com/showpic/cc2341efc76d67bda48b2da69fede31c'}]",2022-07-02T00:01:55,116.195786,34.957077,116.19023307034264,34.95776793226143,金融保险服务,保险公司,中国平安保险公司
B02190AHCG,交通银行(济宁分行),红星中路36号,山东省,370000,济宁市,537,任城区,370811,0537-2883672;0537-2883625,金融保险服务;银行;交通银行,"[{'title': [], 'url': 'http://store.is.autonavi.com/showpic/52531a06d723134df27374bc3d8d7438'}, {'title': [], 'url': 'http://store.is.autonavi.com/showpic/5a6158d7abdcd055d2f4de25920bd4df'}]",2022-07-02T00:01:37,116.581932,35.414205,116.57663844722728,35.41465058927288,金融保险服务,银行,交通银行
B0FFK89G9F,中国人民杠杆,高明山路邹城市峄山镇一个中心小学南侧约220米,山东省,370000,济宁市,537,邹城市,370883,[],金融保险服务;金融保险服务机构;金融保险机构,[],2022-07-02T00:00:24,116.998978,35.302274,116.9932879247667,35.30263485784672,金融保险服务,金融保险服务机构,金融保险机构
B02190AY7T,济宁农商银行(中心闸支行),柳行路博古庄路与交叉路口,山东省,370000,济宁市,537,任城区,370811,0537-2216349,金融保险服务;银行;农村商业银行,"[{'title': [], 'url': 'http://store.is.autonavi.com/showpic/24e3867c3c3011b4841ada691d2eaa30'}]",2022-07-01T23:52:16,116.571892,35.39778,116.5665907509242,35.39822994923494,金融保险服务,银行,农村商业银行
B0FFH8NX2F,中国邮政储蓄银行24小时自助银行(文峰营业所),文峰路9号附近,山东省,370000,济宁市,537,金乡县,370828,[],金融保险服务;自动提款机;中国邮政储蓄银行ATM,[],2022-07-01T23:51:51,116.305819,35.07137,116.30028012077491,35.0719285222974,金融保险服务,自动提款机,中国邮政储蓄银行ATM
B0H3YC85FM,京东金融,徐集镇徐集商贸城21号楼,山东省,370000,济宁市,537,梁山县,370832,15554700822,金融保险服务;金融保险服务机构;金融保险机构,"[{'title': [], 'url': 'http://store.is.autonavi.com/showpic/8820107f97dd9f4b56b00f49d97d4585'}, {'title': [], 'url': 'http://store.is.autonavi.com/showpic/904d2e129062741fcd1f9e77128a46f3'}, {'title': [], 'url': 'http://store.is.autonavi.com/showpic/20d32aea39032d11216bc6e6b4103305'}]",2022-07-01T23:48:40,116.20249,35.690945,116.19687682827688,35.69100179623702,金融保险服务,金融保险服务机构,金融保险机构
B02190ABDZ,中国银行(济宁分行),洸河路101号,山东省,370000,济宁市,537,任城区,370811,0537-2360139;0537-3200166,金融保险服务;银行;中国银行,"[{'title': [], 'url': 'http://store.is.autonavi.com/showpic/9c98fd07b93b55dadaa6a35a1fdb2b21'}]",2022-07-01T23:42:19,116.60766,35.420363,116.60236399715902,35.42080677874252,金融保险服务,银行,中国银行
B0FFJMTBQB,邹城农商银行(凫山支行),矿建东路1208号齐鲁农村产权交易中心一层,山东省,370000,济宁市,537,邹城市,370883,0537-5116355,金融保险服务;银行;农村商业银行,"[{'title': [], 'url': 'http://store.is.autonavi.com/showpic/8aeefc9c0fe88453722382edb41cecee'}, {'title': [], 'url': 'http://store.is.autonavi.com/showpic/82be2d14adda24aa5f3772b3b8c1b39d'}]",2022-07-01T23:41:26,116.941698,35.401687,116.9362106350918,35.402107021447314,金融保险服务,银行,农村商业银行
B0FFFGTY5W,济宁农商银行(冠亚支行),冠亚星城B13-14号,山东省,370000,济宁市,537,任城区,370811,0537-2323073,金融保险服务;银行;农村商业银行,"[{'title': [], 'url': 'http://store.is.autonavi.com/showpic/568100dea3104d32a8254478'}]",2022-07-01T23:40:20,116.631311,35.424719,116.6259829204606,35.42513839024899,金融保险服务,银行,农村商业银行
B0FFIR1OA3,中泰证券,吴泰闸路33-9号农业银行东,山东省,370000,济宁市,537,任城区,370811,0537-2907812,金融保险服务;证券公司;证券公司,"[{'title': [], 'url': 'http://store.is.autonavi.com/showpic/276356a60b0f282642871638439c134d'}]",2022-07-01T23:36:37,116.615213,35.425295,116.60990922931369,35.42573037323344,金融保险服务,证券公司,证券公司
B0FFHVK7P5,合众人寿,太平路339号西关社区四楼,山东省,370000,济宁市,537,邹城市,370883,[],金融保险服务;金融保险服务机构;金融保险机构,[],2022-07-01T23:36:08,116.959251,35.404449,116.9537089214274,35.40483023041728,金融保险服务,金融保险服务机构,金融保险机构
B0FFGEOJ2C,凯源车贷,圣泽大街南50米,山东省,370000,济宁市,537,汶上县,370830,[],金融保险服务;金融保险服务机构;金融保险机构,"[{'title': [], 'url': 'http://store.is.autonavi.com/showpic/567a5a9da3102e78f39634b3'}, {'title': [], 'url': 'http://store.is.autonavi.com/showpic/b6bfebf6c63f6523cb3c7182e8003783'}]",2022-07-01T23:36:07,116.480235,35.720886,116.47463399076194,35.72090527995072,金融保险服务,金融保险服务机构,金融保险机构
B0H12R9B8T,中国农业发展银行(邹城市支行),太平西路609号,山东省,370000,济宁市,537,邹城市,370883,0537-5113356,金融保险服务;银行;银行,"[{'title': [], 'url': 'http://store.is.autonavi.com/showpic/97ebbb2b7d67faec309220809de4e65d'}, {'title': [], 'url': 'http://store.is.autonavi.com/showpic/039c528f0da8657ea363c3d66f6bc3de'}, {'title': [], 'url': 'http://store.is.autonavi.com/showpic/24cda23ceee319ddeb2dc1d1e59f861b'}]",2022-07-01T23:36:06,116.962306,35.404295,116.95675316779598,35.4046689515916,金融保险服务,银行,银行
B0HR665CKC,山东省农村信用社(漕河镇),兖肖线与104省道交叉口西南40米,山东省,370000,济宁市,537,兖州区,370812,[],金融保险服务;银行;农村商业银行,[],2022-07-01T23:32:38,116.787921,35.664614,116.78233839611686,35.66473810774392,金融保险服务,银行,农村商业银行
B0FFI6TKBA,汶上县站镇黄北村农商银行所,东站镇黄北村黄北超市东北侧240米,山东省,370000,济宁市,537,汶上县,370830,0537-7276085,金融保险服务;金融保险服务机构;金融保险机构,[],2022-07-01T23:29:58,116.57433,35.626322,116.56900853438088,35.626616531133486,金融保险服务,金融保险服务机构,金融保险机构
B0FFGG7G4S,富邦建投证券(济宁吴泰闸路证券营业部),聊城高新区吴泰闸路冠亚星城C1座152号,山东省,370000,济宁市,537,任城区,370811,0537-5166699,金融保险服务;证券公司;证券营业厅,"[{'title': [], 'url': 'http://store.is.autonavi.com/showpic/568100dea3104d32a825443c'}]",2022-07-01T23:24:20,116.628195,35.425355,116.62287243057592,35.42577773961869,金融保险服务,证券公司,证券营业厅
B02190ABD6,中国建设银行(济宁高新支行),吴泰闸东路134号,山东省,370000,济宁市,537,任城区,370811,0537-2361840;0537-2333900,金融保险服务;银行;中国建设银行,"[{'title': [], 'url': 'http://store.is.autonavi.com/showpic/3a57bda397f6e347a6c22d70243998d9'}, {'title': [], 'url': 'http://store.is.autonavi.com/showpic/4103fe8b27d1bae2093c24e09b4f97b2'}]",2022-07-01T23:23:44,116.622107,35.4247,116.61679424165509,35.42512990765227,金融保险服务,银行,中国建设银行
B0GK91SRSE,长安保险销售梁山分公司,水泊街道茶庄小学东北侧约40米,山东省,370000,济宁市,537,梁山县,370832,[],金融保险服务;金融保险服务机构;金融保险机构,[],2022-07-01T23:19:07,116.116812,35.801867,116.11098694037936,35.80174290623534,金融保险服务,金融保险服务机构,金融保险机构
B02190BG9Y,济宁农商银行24小时自助银行(中心闸支行),柳行路与博古庄路交叉路口,山东省,370000,济宁市,537,任城区,370811,[],金融保险服务;自动提款机;农村商业银行ATM,"[{'title': [], 'url': 'http://store.is.autonavi.com/showpic/5684e30da310f9ed88096e5d'}, {'title': [], 'url': 'http://store.is.autonavi.com/showpic/5684e30da310f9ed88096e5f'}, {'title': [], 'url': 'http://store.is.autonavi.com/showpic/5684e30da310f9ed88096e61'}]",2022-07-01T23:18:21,116.571877,35.397801,116.56657573066768,35.39825091441227,金融保险服务,自动提款机,农村商业银行ATM
B02190BFY0,聊城银行24小时自助银行服务(共青团支行),共青团路26-13号,山东省,370000,济宁市,537,任城区,370811,[],金融保险服务;自动提款机;自动提款机,"[{'title': [], 'url': 'http://store.is.autonavi.com/showpic/5684e9baa310f9ed880a20fc'}, {'title': [], 'url': 'http://store.is.autonavi.com/showpic/5684e9baa310f9ed880a20fe'}, {'title': [], 'url': 'http://store.is.autonavi.com/showpic/acee2c4520d67db338729e36ee6c4eda'}]",2022-07-01T23:17:07,116.588414,35.417096,116.58312317400338,35.417542805898435,金融保险服务,自动提款机,自动提款机
B02190AG0N,中国建设银行(金山街分理处),中心街11附近,山东省,370000,济宁市,537,金乡县,370828,[],金融保险服务;银行;中国建设银行,"[{'title': [], 'url': 'http://store.is.autonavi.com/showpic/1dc80eba560e41b22f9f3438cf96eca3'}]",2022-07-01T23:13:02,116.309781,35.064512,116.3042351960222,35.065071175300524,金融保险服务,银行,中国建设银行
B0GKGLAYHZ,邹城农商银行普惠金融服务点,319省道东南侧,山东省,370000,济宁市,537,邹城市,370883,[],金融保险服务;金融保险服务机构;金融保险机构,[],2022-07-01T23:11:52,117.313189,35.365064,117.30724728747349,35.36529214534606,金融保险服务,金融保险服务机构,金融保险机构
B0219057CD,中国工商银行(济宁建设路支行)(暂停营业),建设路23号,山东省,370000,济宁市,537,任城区,370811,0537-2315897,金融保险服务;银行;中国工商银行,"[{'title': [], 'url': 'http://store.is.autonavi.com/showpic/ea20e20274ca8d430076ae0f0a2aa108'}]",2022-07-01T23:09:05,116.596394,35.41246,116.59110409951704,35.41291241698316,金融保险服务,银行,中国工商银行
B02190BB4O,济宁银行(解放路支行),建设南路12号,山东省,370000,济宁市,537,任城区,370811,0537-2896559;0537-2896509,金融保险服务;银行;银行,"[{'title': [], 'url': 'http://store.is.autonavi.com/showpic/67df393c9c725ce600b293d6b2820a8a'}, {'title': [], 'url': 'http://store.is.autonavi.com/showpic/7d22cb8693c8234e003c45349fcd5883'}]",2022-07-01T23:08:14,116.597966,35.400586,116.59267696069593,35.40104828455135,金融保险服务,银行,银行
B0HR0ATWM0,中国工程建设银行ATM,钟山湖新区公主路与圣贤路交汇处,山东省,370000,济宁市,537,任城区,370811,[],金融保险服务;自动提款机;中国建设银行ATM,[],2022-07-01T23:02:57,116.594427,35.352056,116.58914335760542,35.35256009659632,金融保险服务,自动提款机,中国建设银行ATM
B02190ADP2,中国农业银行(来鹤支行),龙行路7-1号,山东省,370000,济宁市,537,任城区,370811,0537-3972281,金融保险服务;银行;中国农业银行,"[{'title': [], 'url': 'http://store.is.autonavi.com/showpic/dfbc1bbdeace2b409e0511e2ee73a067'}]",2022-07-01T23:00:01,116.587596,35.397479,116.58230688833082,35.39794170137851,金融保险服务,银行,中国农业银行
B0FFHFV3NN,中国工商银行ATM,金色嘉苑西区附近,山东省,370000,济宁市,537,兖州区,370812,[],金融保险服务;自动提款机;中国工商银行ATM,"[{'title': [], 'url': 'http://store.is.autonavi.com/showpic/e01422c7a5890dd0c4ad70b7fef31697'}, {'title': [], 'url': 'http://store.is.autonavi.com/showpic/d14bdc081b545563410628bcc1b1f032'}]",2022-07-01T22:59:22,116.717703,35.45527,116.71216557056812,35.45552030328264,金融保险服务,自动提款机,中国工商银行ATM
B02190AI2M,中国银行(邹城矿山支行),凫山南路889号,山东省,370000,济宁市,537,邹城市,370883,0537-5313655,金融保险服务;银行;中国银行,"[{'title': [], 'url': 'http://store.is.autonavi.com/showpic/342cad6b9cea7fc902927ec3969dcb57'}]",2022-07-01T22:57:18,116.951,35.40395,116.94548523531708,35.404350163891145,金融保险服务,银行,中国银行
B0FFFGTZ5C,兴业银行(济宁邹城支行),峄山北路66号贵和购物广场F1,山东省,370000,济宁市,537,邹城市,370883,0537-3381688;0537-3381665;0537-3381676,金融保险服务;银行;兴业银行,"[{'title': [], 'url': 'http://store.is.autonavi.com/showpic/b705e6bfccd4a1f2bff03fa99c073bcd'}]",2022-07-01T22:56:07,116.979872,35.400841,116.97425190123369,35.40117059453369,金融保险服务,银行,兴业银行
B02190ACR1,中国邮政储蓄银行(任城区支行),太白楼中路23-2号,山东省,370000,济宁市,537,任城区,370811,0537-2887068,金融保险服务;银行;中国邮政储蓄银行,"[{'title': [], 'url': 'http://store.is.autonavi.com/showpic/fa63277e837e98775a08876fd9c9037b'}, {'title': [], 'url': 'http://store.is.autonavi.com/showpic/5684e604a310f9ed8809bf1f'}, {'title': [], 'url': 'http://store.is.autonavi.com/showpic/5684e604a310f9ed8809bf22'}]",2022-07-01T22:55:15,116.585792,35.406036,116.58050134767268,35.40649068440461,金融保险服务,银行,中国邮政储蓄银行
B0GDJ55FRX,新华人寿保险股份有限公司(瑞祥路),曲阜市裕隆路59号101-108、201-244、301-354,山东省,370000,济宁市,537,曲阜市,370881,0537-4469567,金融保险服务;金融保险服务机构;金融保险机构,[],2022-07-01T22:53:41,116.957246,35.590965,116.95169141256982,35.59121834711681,金融保险服务,金融保险服务机构,金融保险机构
B0FFHJQ034,中国工商银行24小时自助银行(商城南路),连菏线孔子国际商品交易城,山东省,370000,济宁市,537,曲阜市,370881,[],金融保险服务;自动提款机;中国工商银行ATM,[],2022-07-01T22:50:27,116.94041,35.58898,116.93490673035178,35.589268527000925,金融保险服务,自动提款机,中国工商银行ATM
B021902781,中国工程建设银行(龙桥路分理处),龙桥南路(兖州市口腔医院对面),山东省,370000,济宁市,537,兖州区,370812,0537-3633815,金融保险服务;银行;中国建设银行,"[{'title': [], 'url': 'http://store.is.autonavi.com/showpic/d4db1be273af2a2e55d649c4a6d03867'}, {'title': [], 'url': 'http://store.is.autonavi.com/showpic/567a5f56a3102e78f3977bde'}]",2022-07-01T22:50:00,116.815244,35.545281,116.80971400210636,35.54551668745884,金融保险服务,银行,中国建设银行
B0FFKFLP4X,中国农业银行(济宁洸河支行),供销路与任城大道交叉口东南侧,山东省,370000,济宁市,537,任城区,370811,0537-2175620,金融保险服务;银行;中国农业银行,"[{'title': [], 'url': 'http://store.is.autonavi.com/showpic/4e95918573a4f98151bd6db76cc0a91b'}]",2022-07-01T22:48:40,116.602649,35.439178,116.59735431631692,35.43960837710962,金融保险服务,银行,中国农业银行
B0FFGG78S4,中银富登村镇银行24小时自助银行(息陬支行),息陬镇政府西200米,山东省,370000,济宁市,537,曲阜市,370881,[],金融保险服务;自动提款机;自动提款机,"[{'title': [], 'url': 'http://store.is.autonavi.com/showpic/bdcf98adace857ed79aa48f27d66661f'}, {'title': [], 'url': 'http://store.is.autonavi.com/showpic/567a5ae7a3102e78f396498c'}, {'title': [], 'url': 'http://store.is.autonavi.com/showpic/567a5ae7a3102e78f3964990'}]",2022-07-01T22:47:16,117.056788,35.550495,117.05085354784131,35.550505347726656,金融保险服务,自动提款机,自动提款机
B0GK45OPUD,金乡农商银行,胡楼卫生室西南侧80米,山东省,370000,济宁市,537,金乡县,370828,[],金融保险服务;银行;农村商业银行,[],2022-07-01T22:46:22,116.354432,35.0739,116.34879301926752,35.07436634526104,金融保险服务,银行,农村商业银行
B0FFKBDSUX,中国平安财产保险股份有限公司中心店镇营销服务部,中心店镇国宏大道6369-3号国宏大道鲁南汽车城,山东省,370000,济宁市,537,邹城市,370883,[],金融保险服务;金融保险服务机构;金融保险机构,[],2022-07-01T22:45:18,116.977516,35.440984,116.9719012433561,35.44128775236076,金融保险服务,金融保险服务机构,金融保险机构
B0FFGGCQII,广发银行(金融街小微支行),古槐路47-1号,山东省,370000,济宁市,537,任城区,370811,0537-5156928,金融保险服务;银行;广发银行,"[{'title': [], 'url': 'http://store.is.autonavi.com/showpic/07c664c39e82bc8b860d3a9867908375'}]",2022-07-01T22:41:12,116.580927,35.419228,116.57563226356942,35.419668765049266,金融保险服务,银行,广发银行
B0FFF9DXCH,济宁农商银行24小时自助银行,居禹路济宁豪德商贸城-C区,山东省,370000,济宁市,537,任城区,370811,[],金融保险服务;自动提款机;农村商业银行ATM,"[{'title': [], 'url': 'http://store.is.autonavi.com/showpic/ee6a91647788c4252b4b917b260e3c76'}]",2022-07-01T22:39:46,116.526848,35.394288,116.52144344420287,35.39465031238609,金融保险服务,自动提款机,农村商业银行ATM
B021908061,中国农业银行(唐口办事处),唐口镇105国道附近,山东省,370000,济宁市,537,任城区,370811,0537-2514168;0537-6053730,金融保险服务;银行;中国农业银行,"[{'title': [], 'url': 'http://store.is.autonavi.com/showpic/1839c406a4e99e97362d13f5482122a9'}, {'title': [], 'url': 'http://store.is.autonavi.com/showpic/b9d23bc4e9d019c50f692323f58e26b2'}]",2022-07-01T22:31:58,116.492721,35.310676,116.48720640256234,35.31101329514698,金融保险服务,银行,中国农业银行
B0G0LRIIRF,新华保险客户服务中心(兖州支公司),永华新百汇金融中心A座17层1701室,山东省,370000,济宁市,537,兖州区,370812,0537-6550217,金融保险服务;保险公司;新华人寿保险公司,"[{'title': [], 'url': 'http://store.is.autonavi.com/showpic/2fdd8eeca053f97379aa713d1a4c1fbe'}, {'title': [], 'url': 'http://store.is.autonavi.com/showpic/03ebc48319821d878824a47af8d33a27'}]",2022-07-01T22:30:16,116.794638,35.556584,116.78907484480354,35.556778197369674,金融保险服务,保险公司,新华人寿保险公司
B0FFJTG97F,阳光保险,新城发展大厦B座6区,山东省,370000,济宁市,537,任城区,370811,[],金融保险服务;保险公司;保险公司,[],2022-07-01T22:30:11,116.597079,35.360436,116.591794177648,35.36093284799586,金融保险服务,保险公司,保险公司
B0FFKM8AHQ,济宁银行(兖州奎星苑支行),玉皇庙街与酒仙桥南路交叉口西南50米,山东省,370000,济宁市,537,兖州区,370812,0537-3416898,金融保险服务;银行;银行,"[{'title': [], 'url': 'http://store.is.autonavi.com/showpic/0d927e05bd52b87e3f0f96c693b51f7e'}]",2022-07-01T22:26:30,116.83776,35.545779,116.8322699983526,35.546056289475224,金融保险服务,银行,银行
B0FFI9TWL7,梁山农商银行24小时自助银行(水泊南路支行),水泊南路丽景花园西侧,山东省,370000,济宁市,537,梁山县,370832,[],金融保险服务;自动提款机;农村商业银行ATM,[],2022-07-01T22:25:52,116.085984,35.791721,116.08014206849326,35.79159675709987,金融保险服务,自动提款机,农村商业银行ATM
B0FFK1AIZ0,中国护佑车险,洛阳大街与338省道交叉口东南100米,山东省,370000,济宁市,537,嘉祥县,370829,[],金融保险服务;金融保险服务机构;金融保险机构|汽车服务;汽车服务相关;汽车服务相关,[],2022-07-01T22:23:42,116.153903,35.596906,116.14817530454256,35.5969248532972,金融保险服务,金融保险服务机构,金融保险机构
B0GKZZ7U8H,瑞祥投资经营管理合伙企业(有限合伙),黄王路与王因路街口东北480米,山东省,370000,济宁市,537,兖州区,370812,[],金融保险服务;金融保险服务机构;金融保险机构,[],2022-07-01T22:22:54,116.777211,35.464426,116.77163940872175,35.4646628117851,金融保险服务,金融保险服务机构,金融保险机构
B0GURLP7H9,中国银行ATM,光明路与小河二环路交叉口西120米,山东省,370000,济宁市,537,金乡县,370828,[],金融保险服务;自动提款机;中国银行ATM,[],2022-07-01T22:21:59,116.342885,35.071845,116.33726896711065,35.07233379731544,金融保险服务,自动提款机,中国银行ATM
B0FFGSINXO,华夏文交所,文峰路151号附近,山东省,370000,济宁市,537,金乡县,370828,[],金融保险服务;金融保险服务机构;金融保险机构,"[{'title': [], 'url': 'http://store.is.autonavi.com/showpic/0e3e3f2d9347f5df48f94ad3bd6feb08'}]",2022-07-01T22:20:46,116.295406,35.072696,116.28988527092925,35.07326999607876,金融保险服务,金融保险服务机构,金融保险机构
B0FFFZCUIL,南张邮政储蓄24小时自助银行,337省道西50米,山东省,370000,济宁市,537,任城区,370811,[],金融保险服务;自动提款机;中国邮政储蓄银行ATM,[],2022-07-01T22:19:24,116.51369,35.460664,116.50823468293898,35.46093587015504,金融保险服务,自动提款机,中国邮政储蓄银行ATM
B0FFINP34K,鱼台农商银行24全程自助银行(七所楼分理处),湖凌四路金泰华城,山东省,370000,济宁市,537,鱼台县,370827,[],金融保险服务;自动提款机;农村商业银行ATM,"[{'title': [], 'url': 'http://store.is.autonavi.com/showpic/a4dd5083f4590ef876743c95a3fcc805'}, {'title': [], 'url': 'http://store.is.autonavi.com/showpic/c4052389955fe3e651c72e817fbddfa5'}]",2022-07-01T22:19:11,116.638469,35.011039,116.63316813538016,35.011864817654626,金融保险服务,自动提款机,农村商业银行ATM
B0FFKOG4RY,中国人民财产保险股份有限公司(杨店营销服务部),前门大街北150米汶上县杨店客运站附近,山东省,370000,济宁市,537,汶上县,370830,0537-7239518,金融保险服务;金融保险服务机构;金融保险机构,"[{'title': [], 'url': 'http://aos-cdn-image.amap.com/sns/ugccomment/3797fe5b-b320-4fba-a35e-6e5299393114.jpg'}]",2022-07-01T22:17:41,116.533018,35.82803,116.52758825500804,35.82816148994723,金融保险服务,金融保险服务机构,金融保险机构
B0FFI8LZ9E,中华保险财产保险,扬州北路,山东省,370000,济宁市,537,兖州区,370812,[],金融保险服务;保险公司;保险公司,"[{'title': [], 'url': 'http://store.is.autonavi.com/showpic/cb5be2d4a9db3c14b73600833c583b0e'}]",2022-07-01T22:16:38,116.795706,35.557764,116.79014414270766,35.55795902515854,金融保险服务,保险公司,保险公司
B0FFIA045M,山东梁山民丰村镇银行24小时自助银行(御景园东),水泊大街梁山伦达广场,山东省,370000,济宁市,537,梁山县,370832,[],金融保险服务;自动提款机;自动提款机,"[{'title': [], 'url': 'http://store.is.autonavi.com/showpic/1347c6dc1a8c1cace41835782894b00f'}]",2022-07-01T22:16:33,116.081861,35.784758,116.07602125053228,35.78463893221728,金融保险服务,自动提款机,自动提款机
B0G3D70UUA,盛昌顺商业活动,连菏线曾子国际商品交易城,山东省,370000,济宁市,537,曲阜市,370881,13468285666;15554465777,金融保险服务;金融保险服务机构;金融保险机构,[],2022-07-01T22:14:21,116.937869,35.588211,116.93237236777856,35.58850417518259,金融保险服务,金融保险服务机构,金融保险机构
B0H2A766YP,中国大地保险,金宇路9号商动力电商大厦4楼,山东省,370000,济宁市,537,任城区,370811,[],金融保险服务;保险公司;保险公司,[],2022-07-01T22:11:16,116.582376,35.430389,116.57708110799466,35.43082180043416,金融保险服务,保险公司,保险公司
B0FFKXD9L1,中国人寿,傅村镇第一中学北侧,山东省,370000,济宁市,537,微山县,370826,[],金融保险服务;保险公司;中国人寿保险公司,[],2022-07-01T22:10:43,117.06517,34.849101,117.05928958226951,34.84978429160123,金融保险服务,保险公司,中国人寿保险公司
B02190ACCV,中国人寿(仲山镇营销服务部),祥和社区北侧约40米,山东省,370000,济宁市,537,嘉祥县,370829,[],金融保险服务;保险公司;中国人寿保险公司,[],2022-07-01T22:08:47,116.265707,35.33606,116.26019150224022,35.33639527558874,金融保险服务,保险公司,中国人寿保险公司
B0FFFRK6CS,青州农村商业银行,建设北路与扬州北路交叉口西北120米,山东省,370000,济宁市,537,兖州区,370812,[],金融保险服务;银行;农村商业银行,[],2022-07-01T22:08:32,116.794312,35.555899,116.78874848886254,35.55609315631938,金融保险服务,银行,农村商业银行
B0FFI18XMD,微山县邮政储蓄,奎文东路5号,山东省,370000,济宁市,537,微山县,370826,[],金融保险服务;银行;中国邮政储蓄银行,"[{'title': [], 'url': 'http://store.is.autonavi.com/showpic/b8e158141caf590ef8cbd8f88052b3c2'}]",2022-07-01T22:05:54,117.143196,34.805577,117.13729563843452,34.806320535559905,金融保险服务,银行,中国邮政储蓄银行
B02190AH1W,微山农商银行,留庄七村,山东省,370000,济宁市,537,微山县,370826,0537-8631239,金融保险服务;银行;农村商业银行,"[{'title': [], 'url': 'http://store.is.autonavi.com/showpic/6a12859ef0a0a2bd91971dbd6617191d'}]",2022-07-01T22:03:38,116.940334,35.015468,116.93488969524844,35.01628298666082,金融保险服务,银行,农村商业银行
B02190AF5O,中国邮政储蓄银行(北宿支行),北宿镇驻地,山东省,370000,济宁市,537,邹城市,370883,0537-5410102,金融保险服务;银行;中国邮政储蓄银行,"[{'title': [], 'url': 'http://store.is.autonavi.com/showpic/94969ac4a8eb3f5a5cebe027c58cd5b8'}, {'title': [], 'url': 'http://store.is.autonavi.com/showpic/f6e25d825d1cbec7c43cf4fa34a48c70'}]",2022-07-01T22:03:31,116.899406,35.359212,116.8939897887023,35.35970416990435,金融保险服务,银行,中国邮政储蓄银行
B0G12UMAQO,山东全民安康保险销售有限公司,北湖旅游度假区新城发展大厦B座二层201室,山东省,370000,济宁市,537,任城区,370811,18763287088,金融保险服务;保险公司;保险公司,"[{'title': [], 'url': 'http://store.is.autonavi.com/showpic/a4c1f8b76f16b8a77c1bfb45e3dcb8dc'}]",2022-07-01T22:02:17,116.597112,35.360483,116.5918271662331,35.36097980703941,金融保险服务,保险公司,保险公司
B0HUV94Q26,圣泰农村合作银行24足足自助银行服务(吴泰闸路支行),遮蔽城市花园东4门旁,山东省,370000,济宁市,537,任城区,370811,[],金融保险服务;自动提款机;自动提款机,[],2022-07-01T22:01:07,116.615357,35.425004,116.61005309238844,35.42543950158786,金融保险服务,自动提款机,自动提款机
B0FFI98VAA,鱼台农商银行,沈集村该中心街34号附近,山东省,370000,济宁市,537,鱼台县,370827,0537-6060068,金融保险服务;金融保险服务机构;金融保险机构,[],2022-07-01T21:58:28,116.43356,35.042743,116.42790379092298,35.043221474979525,金融保险服务,金融保险服务机构,金融保险机构
B0G3SXYJ88,中国邮政24小时自助银行,泉张线,山东省,370000,济宁市,537,泗水县,370831,[],金融保险服务;自动提款机;自动提款机,[],2022-07-01T21:58:02,117.481941,35.54789,117.47595419900756,35.54798772557805,金融保险服务,自动提款机,自动提款机
B0FFHN3I2N,枣庄银行(汶上支行),中都街政和园附近(汶上县委西),山东省,370000,济宁市,537,汶上县,370830,[],金融保险服务;银行;银行,"[{'title': [], 'url': 'http://store.is.autonavi.com/showpic/233b74b4bded62e788d11a9141d9828c'}]",2022-07-01T21:56:00,116.495178,35.712202,116.4896307330828,35.71226885036808,金融保险服务,银行,银行
B0GKBLJ5PX,邹城农商银行普惠金融服务点,北宿镇西毛堂村党员群众服务中心东侧,山东省,370000,济宁市,537,邹城市,370883,[],金融保险服务;金融保险服务机构;金融保险机构,[],2022-07-01T21:55:03,116.878102,35.301263,116.8726892852074,35.301797079061096,金融保险服务,金融保险服务机构,金融保险机构
B0G3ZMOK3K,枣庄银行普惠金融服务站,寅寺镇何湾小学东南侧,山东省,370000,济宁市,537,汶上县,370830,[],金融保险服务;金融保险服务机构;金融保险机构,[],2022-07-01T21:54:11,116.423179,35.722163,116.41743648176016,35.722066398839125,金融保险服务,金融保险服务机构,金融保险机构
B0FFGG7H32,长江证券(济宁金宇路证券营业部),金宇路30号百丰大厦1楼2楼,山东省,370000,济宁市,537,任城区,370811,0537-2283550,金融保险服务;证券公司;证券营业厅,"[{'title': [], 'url': 'http://store.is.autonavi.com/showpic/bd69259b77ac995c762345ea0c080da5'}]",2022-07-01T21:49:57,116.604798,35.429757,116.59950304873882,35.43019427847762,金融保险服务,证券公司,证券营业厅
B0HGJ7KSW0,印度洋保险-太享贷,吴泰闸东路95号,山东省,370000,济宁市,537,任城区,370811,13863758082,金融保险服务;金融保险服务机构;金融保险机构,[],2022-07-01T21:48:16,116.625801,35.424716,116.6204825134124,35.4251420130349,金融保险服务,金融保险服务机构,金融保险机构
B0FFGG77SP,中银富登村镇银行24小时自助银行(曲阜分行),春秋路24号,山东省,370000,济宁市,537,曲阜市,370881,[],金融保险服务;自动提款机;自动提款机,"[{'title': [], 'url': 'http://store.is.autonavi.com/showpic/567a58aba3102e78f3960ce1'}, {'title': [], 'url': 'http://store.is.autonavi.com/showpic/567a58aba3102e78f3960cdd'}, {'title': [], 'url': 'http://store.is.autonavi.com/showpic/a795da9cd1c2391292e3ada7d673e23a'}]",2022-07-01T21:41:12,116.997991,35.579279,116.99227585114431,35.57942601797319,金融保险服务,自动提款机,自动提款机
B0FFH1WDPE,济宁蓝海村镇银行股份有限公司(总行),荷花路101号,山东省,370000,济宁市,537,任城区,370811,0537-2030177;0537-2033117,金融保险服务;银行相关;银行相关,"[{'title': [], 'url': 'http://store.is.autonavi.com/showpic/9f0712c2dcc670005b4cb75df3208538'}, {'title': [], 'url': 'http://store.is.autonavi.com/showpic/256d4bf1229f168900bc91630d386cc6'}, {'title': [], 'url': 'http://store.is.autonavi.com/showpic/672b5b6de239b8e513efe8182a795bf6'}]",2022-07-01T21:39:38,116.579899,35.362852,116.57460915136636,35.36333977988242,金融保险服务,银行相关,银行相关
B0FFIAACG1,中华联合财产保险股份有限公司(萌山路),萌山路五洲祥城73-11号,山东省,370000,济宁市,537,嘉祥县,370829,0537-3215585,金融保险服务;保险公司;保险公司,"[{'title': [], 'url': 'http://store.is.autonavi.com/showpic/4c611c6b6ac0dc2153085b87d965aeb8'}, {'title': [], 'url': 'http://store.is.autonavi.com/showpic/75a65a29ef8d7dfaadbfc07eff0a1f00'}, {'title': [], 'url': 'http://store.is.autonavi.com/showpic/1dcf94053403b69ad1e99d2f21f899ab'}]",2022-07-01T21:39:20,116.357289,35.414598,116.35160939804462,35.41472183321118,金融保险服务,保险公司,保险公司
B0FFINOP4I,金联安保险出单教育中心,缗城路与西关西街交叉口东160米,山东省,370000,济宁市,537,金乡县,370828,[],金融保险服务;保险公司;保险公司,[],2022-07-01T21:38:40,116.296642,35.054284,116.2911211246415,35.05487657348745,金融保险服务,保险公司,保险公司
B0FFI94M8Y,中国邮政储蓄银行(王因营业所),王因路,山东省,370000,济宁市,537,兖州区,370812,0537-3862188,金融保险服务;银行;中国邮政储蓄银行,"[{'title': [], 'url': 'http://store.is.autonavi.com/showpic/454f81671e51481174abeb73e6e9fd43'}]",2022-07-01T21:36:20,116.773407,35.461005,116.76783329786598,35.461240972219535,金融保险服务,银行,中国邮政储蓄银行
B0FFITKO80,中国基层银行24小时自助银行(兖州支行),淮安北路永华·新百汇,山东省,370000,济宁市,537,兖州区,370812,[],金融保险服务;自动提款机;中国民生银行ATM,"[{'title': [], 'url': 'http://store.is.autonavi.com/showpic/11f439f31820e073c589df262f11b960'}, {'title': [], 'url': 'http://store.is.autonavi.com/showpic/977a7ea1bc5ad8ea6cb2b9104fd9e49d'}]",2022-07-01T21:28:54,116.794905,35.556105,116.78934224689957,35.55629989173712,金融保险服务,自动提款机,中国民生银行ATM
B0FFH5XWMP,中国平安财产保险股份有限公司,扬州北路西50米,山东省,370000,济宁市,537,兖州区,370812,0537-3126269;0537-3126268,金融保险服务;保险公司;中国平安保险公司,"[{'title': [], 'url': 'http://store.is.autonavi.com/showpic/1ff33b0f77e3c91e127cc1859204e8b9'}]",2022-07-01T21:28:31,116.795716,35.558629,116.7901540660698,35.55882349422395,金融保险服务,保险公司,中国平安保险公司
B0FFMH95JY,泰山财产保险股份有限公司济宁中心支公司,太白湖新区新城发展大厦B座一区,山东省,370000,济宁市,537,任城区,370811,[],金融保险服务;保险公司;保险公司,"[{'title': [], 'url': 'http://store.is.autonavi.com/showpic/06925857b4c80b3b69b76fc78f2468ca'}]",2022-07-01T21:27:51,116.596535,35.360488,116.59125027453554,35.360984784630475,金融保险服务,保险公司,保险公司
B0FFFRK76V,中国银行(东风路支行),商业街南街微湖大酒店对过,山东省,370000,济宁市,537,微山县,370826,0537-8222293,金融保险服务;银行;中国银行,"[{'title': [], 'url': 'http://store.is.autonavi.com/showpic/f7678cdcff5a3e88480ca8d2522d2e04'}, {'title': [], 'url': 'http://store.is.autonavi.com/showpic/8798a120d47928951ad2ead5da84d4cd'}, {'title': [], 'url': 'http://store.is.autonavi.com/showpic/dc2ef5136258c3737c14be256e4bafea'}]",2022-07-01T21:27:24,117.136888,34.798363,117.1309802815411,34.79910469008607,金融保险服务,银行,中国银行
B0GUR9QXO7,天安财产保险公司,杨店客运站东北侧约170米,山东省,370000,济宁市,537,汶上县,370830,13475792468,金融保险服务;金融保险服务机构;金融保险机构,[],2022-07-01T21:25:32,116.534469,35.829514,116.52904343982084,35.829648694428464,金融保险服务,金融保险服务机构,金融保险机构
B0219032F6,中国工商银行(曲阜支行),大同路11号,山东省,370000,济宁市,537,曲阜市,370881,0537-4491405,金融保险服务;银行;中国工商银行,"[{'title': [], 'url': 'http://store.is.autonavi.com/showpic/20cb9e74796b835989708b786519419e'}]",2022-07-01T21:24:27,116.990676,35.577836,116.9849922352648,35.57800600916853,金融保险服务,银行,中国工商银行
B0G3ZAQ6CE,中国人寿,府前街梁山县马营镇初级中学东北侧约300米,山东省,370000,济宁市,537,梁山县,370832,[],金融保险服务;保险公司;中国人寿保险公司,[],2022-07-01T21:23:42,116.0253,35.793211,116.01956350552042,35.79319502316916,金融保险服务,保险公司,中国人寿保险公司
B0FFFGTHZ8,中国建设银行24小时自助银行(龙行路支行),玄帝庙街南池·怡景园,山东省,370000,济宁市,537,任城区,370811,[],金融保险服务;自动提款机;中国建设银行ATM,"[{'title': [], 'url': 'http://store.is.autonavi.com/showpic/5684e30ba310f9ed88096d51'}, {'title': [], 'url': 'http://store.is.autonavi.com/showpic/5684e30ba310f9ed88096d53'}]",2022-07-01T21:21:21,116.574022,35.397956,116.56872318490002,35.39840814162572,金融保险服务,自动提款机,中国建设银行ATM
B0FFF9YZTJ,四通财产,豪德文化广场C区,山东省,370000,济宁市,537,任城区,370811,[],金融保险服务;金融保险服务机构;金融保险机构,"[{'title': [], 'url': 'http://store.is.autonavi.com/showpic/451b33fe8fb31145abd0cdd0ce407215'}]",2022-07-01T21:12:57,116.527287,35.393125,116.52188395828072,35.39348948117883,金融保险服务,金融保险服务机构,金融保险机构
B0FFG7IMMX,金乡农商银行24小时自助银行,农村商业银行(金乡县化雨镇委南),山东省,370000,济宁市,537,金乡县,370828,[],金融保险服务;自动提款机;农村商业银行ATM,"[{'title': [], 'url': 'http://store.is.autonavi.com/showpic/a0aa0c9d207f04af5e28fe95919c3c3b'}]",2022-07-01T21:09:27,116.367369,34.973547,116.3617186340434,34.974106093142986,金融保险服务,自动提款机,农村商业银行ATM
B0FFLH5S86,中华保险拆检中心,临菏路,山东省,370000,济宁市,537,任城区,370811,[],金融保险服务;金融保险服务机构;金融保险机构,[],2022-07-01T21:09:14,116.552193,35.29054,116.54686843618272,35.29105604830995,金融保险服务,金融保险服务机构,金融保险机构
B0FFK22AG2,浙商财产保险股份有限公司(鱼台支公司),湖陵三路东、北环路北锦绣华城2号楼1单元12层1111号、1211号及2号楼1单元12层1112号、1212号,山东省,370000,济宁市,537,鱼台县,370827,[],金融保险服务;保险公司;保险公司,[],2022-07-01T21:09:08,116.645262,35.011261,116.6399462212164,35.01207593949263,金融保险服务,保险公司,保险公司
B0FFGSJADQ,尚景捷讯保险代理超市,庙前路1637号附近,山东省,370000,济宁市,537,邹城市,370883,[],金融保险服务;金融保险服务机构;金融保险机构,"[{'title': [], 'url': 'http://store.is.autonavi.com/showpic/9b76b679da4cfb13019b173e47230996'}]",2022-07-01T21:04:48,116.976719,35.387182,116.97111306699288,35.38753210306603,金融保险服务,金融保险服务机构,金融保险机构
B0FFGZTZIN,曲阜中银富登村镇银行24小时自助银行(时庄支行),裕隆路129号,山东省,370000,济宁市,537,曲阜市,370881,[],金融保险服务;自动提款机;自动提款机,"[{'title': [], 'url': 'http://store.is.autonavi.com/showpic/306af3c41768e0d056ce74241129545b'}]",2022-07-01T21:04:16,116.942009,35.588972,116.9365014401568,35.58925775932941,金融保险服务,自动提款机,自动提款机
B0FFGA8N48,济宁农商银行,豪德商贸城C区1街1栋,山东省,370000,济宁市,537,任城区,370811,[],金融保险服务;银行;农村商业银行,"[{'title': [], 'url': 'http://store.is.autonavi.com/showpic/d06d081f08f094ebc6aa1cf125267459'}, {'title': [], 'url': 'http://store.is.autonavi.com/showpic/adfb455e7edb64bfc883712e2a71efc0'}]",2022-07-01T21:00:23,116.526842,35.394322,116.52143742163544,35.3946842674457,金融保险服务,银行,农村商业银行
B0HUJC1R7F,顺合易货嘉祥运营中心,青年路与福祥商业步行街交叉口西120米,山东省,370000,济宁市,537,嘉祥县,370829,[],金融保险服务;金融保险服务机构;金融保险机构,[],2022-07-01T20:59:35,116.341308,35.39603,116.3356616764765,35.39619694306941,金融保险服务,金融保险服务机构,金融保险机构
B0FFFGYCO4,济宁市任城区金宇小额贷款公司,仙营街道金宇路9号金宇文化博览交易城北首,山东省,370000,济宁市,537,任城区,370811,[],金融保险服务;金融保险服务机构;金融保险机构,"[{'title': [], 'url': 'http://store.is.autonavi.com/showpic/5684e6a4a310f9ed8809cf22'}]",2022-07-01T20:56:51,116.596397,35.432378,116.59110510367933,35.43281430441661,金融保险服务,金融保险服务机构,金融保险机构
B02190Y2SC,中国工商银行24小时自助银行(邹城电厂支行),长兴路中国工商银行邹城电厂支行东南侧,山东省,370000,济宁市,537,邹城市,370883,[],金融保险服务;自动提款机;中国工商银行ATM,"[{'title': [], 'url': 'http://store.is.autonavi.com/showpic/a1636c313496681638c3a6df67b5610c'}]",2022-07-01T20:53:07,116.946579,35.324849,116.94108578927938,35.32532772692083,金融保险服务,自动提款机,中国工商银行ATM
B0FFHEAGO8,中国建设银行24小时自助银行(胜利路),胜利路万隆国际商城,山东省,370000,济宁市,537,汶上县,370830,[],金融保险服务;自动提款机;中国建设银行ATM,"[{'title': [], 'url': 'http://store.is.autonavi.com/showpic/564967b7609ab9600db926749bc6c9d9'}]",2022-07-01T20:48:13,116.47251,35.724996,116.4668826274327,35.72499212391166,金融保险服务,自动提款机,中国建设银行ATM
B0FFHTJ135,宏城财务,孔子商贸城福源东十街8号,山东省,370000,济宁市,537,曲阜市,370881,18464716111,金融保险服务;金融保险服务机构;金融保险机构,"[{'title': [], 'url': 'http://store.is.autonavi.com/showpic/c40369e053a6d5f2bdd74dd93a6f55ba'}]",2022-07-01T20:46:51,116.943936,35.591712,116.93842281907618,35.59199266993655,金融保险服务,金融保险服务机构,金融保险机构
B0FFMBPE9A,安华农牧业保险山东分公司关于济宁中心支公司,新城的发展大厦B座1层,山东省,370000,济宁市,537,任城区,370811,[],金融保险服务;保险公司;保险公司,[],2022-07-01T20:45:22,116.597656,35.361027,116.59237099246626,35.36152332939096,金融保险服务,保险公司,保险公司
B0HK5CMNIT,恒天财富,新城发展大厦B座2层,山东省,370000,济宁市,537,任城区,370811,[],金融保险服务;金融保险服务机构;金融保险机构,[],2022-07-01T20:45:07,116.597158,35.360632,116.59187314187864,35.36112867601079,金融保险服务,金融保险服务机构,金融保险机构
B0FFHKGLEB,嘉宁保险代理有限公司曲阜分公司南辛营业部,仁和大街南50米,山东省,370000,济宁市,537,曲阜市,370881,[],金融保险服务;保险公司;保险公司,"[{'title': [], 'url': 'http://store.is.autonavi.com/showpic/28f4bd686744e5a67b033366913f2644'}]",2022-07-01T20:41:50,117.128793,35.524051,117.12279829313798,35.524059171917614,金融保险服务,保险公司,保险公司
B02190AFRM,济宁农商银行(喻屯支行),喻屯镇驻地,山东省,370000,济宁市,537,任城区,370811,0537-2537321,金融保险服务;银行;农村商业银行,"[{'title': [], 'url': 'http://store.is.autonavi.com/showpic/0201d807e726352459bf875dbf7453ee'}, {'title': [], 'url': 'http://store.is.autonavi.com/showpic/1e8f6fee0d7a2225d69f8df3f980a71c'}]",2022-07-01T20:38:03,116.513667,35.226198,116.5082354580337,35.226680794369855,金融保险服务,银行,农村商业银行
B0FFGYCCZN,中国人寿,水泊街道水泊南路锦绣城路口南,山东省,370000,济宁市,537,梁山县,370832,[],金融保险服务;保险公司;中国人寿保险公司,"[{'title': [], 'url': 'http://store.is.autonavi.com/showpic/82974b8fc8c9b926895defc4644cec5a'}, {'title': [], 'url': 'http://store.is.autonavi.com/showpic/6cd46dcd7cae5b90d84c5f9a82d19e2c'}]",2022-07-01T20:35:45,116.088742,35.777796,116.08290112655008,35.77767546858823,金融保险服务,保险公司,中国人寿保险公司
B0FFHPYVSI,中国邮政储蓄银行(接庄邮电支局),接驾庄路接庄派出所西南侧约50米,山东省,370000,济宁市,537,任城区,370811,0537-2616106,金融保险服务;银行;中国邮政储蓄银行,"[{'title': [], 'url': 'http://store.is.autonavi.com/showpic/e79a6159592e98d48b963a32aafb4620'}, {'title': [], 'url': 'http://store.is.autonavi.com/showpic/d534918773553e3b301f5399a3edfbcf'}, {'title': [], 'url': 'http://store.is.autonavi.com/showpic/f6ad36bf2f8e41156d3ce03c892a3beb'}]",2022-07-01T20:30:39,116.699607,35.378096,116.6941155399538,35.3784347767467,金融保险服务,银行,中国邮政储蓄银行
B0GRYUUZAQ,众和金融,居禹路红星美凯龙(居禹路店)东侧,山东省,370000,济宁市,537,任城区,370811,13371211220;15153724683,金融保险服务;金融保险服务机构;金融保险机构,[],2022-07-01T20:29:50,116.522808,35.393887,116.51739039473956,35.39423854734792,金融保险服务,金融保险服务机构,金融保险机构
B0G267LDC5,新华人寿保险股份有限公司济宁中心支公司,济宁市任城区金宇西路6号海能智慧广场,山东省,370000,济宁市,537,任城区,370811,[],金融保险服务;金融保险服务机构;金融保险机构,[],2022-07-01T20:25:15,116.585366,35.430176,116.58007274119852,35.43061079747621,金融保险服务,金融保险服务机构,金融保险机构
B0FFFR4XNA,合营银行24小时自助银行(兖州支行),龙桥北路88号,山东省,370000,济宁市,537,兖州区,370812,[],金融保险服务;自动提款机;兴业银行ATM,"[{'title': [], 'url': 'http://store.is.autonavi.com/showpic/0efa46454472741dbbb6c3738f20882c'}]",2022-07-01T20:23:10,116.814385,35.556378,116.80885236845664,35.556605021845606,金融保险服务,自动提款机,兴业银行ATM
B0GUBOR39F,华银保险代理,水泊大街梁山伦达广场,山东省,370000,济宁市,537,梁山县,370832,[],金融保险服务;金融保险服务机构;金融保险机构,[],2022-07-01T20:22:31,116.080244,35.785113,116.07440502813245,35.78499505721823,金融保险服务,金融保险服务机构,金融保险机构
B0FFIBY0OK,华夏保险,永华新百汇金融中心3号商业楼39号,山东省,370000,济宁市,537,兖州区,370812,0537-3402988,金融保险服务;保险公司;保险公司,"[{'title': [], 'url': 'http://store.is.autonavi.com/showpic/8ac5fda22760cc7a9128e56eb768dec0'}, {'title': [], 'url': 'http://store.is.autonavi.com/showpic/0d6c658f2ec7ffa8a99fdf51178bf94d'}, {'title': [], 'url': 'http://store.is.autonavi.com/showpic/01fa9d2d422a6bd169fa3aa1fc37f327'}]",2022-07-01T20:17:13,116.794526,35.557954,116.78896255495486,35.55814716776081,金融保险服务,保险公司,保险公司
B0FFI5MBBB,涌泉经济咨询,商业街与微湖巷交叉口东100米,山东省,370000,济宁市,537,微山县,370826,[],金融保险服务;金融保险服务机构;金融保险机构,"[{'title': [], 'url': 'http://store.is.autonavi.com/showpic/5db5a4ba61ade31b38ea9ded703013f5'}]",2022-07-01T20:16:23,117.140372,34.810683,117.13446731032658,34.81141687121503,金融保险服务,金融保险服务机构,金融保险机构
B0IGM7A5BB,济宁银行微山欢城支行,大润万佳购物中心南邻,山东省,370000,济宁市,537,微山县,370826,[],金融保险服务;银行;银行,[],2022-07-01T20:13:56,117.084957,34.895143,117.0790358627208,34.89575565660819,金融保险服务,银行,银行
B0H1OZSJ9Z,富德生命人寿兖州支公司,金融中心地块5号商业楼05号,山东省,370000,济宁市,537,兖州区,370812,[],金融保险服务;保险公司;保险公司,[],2022-07-01T20:09:16,116.796017,35.557183,116.79045562290224,35.5573788556604,金融保险服务,保险公司,保险公司
B0FFH07HWX,兖州农商银行小微贷营销中心,建设中路61号附近,山东省,370000,济宁市,537,兖州区,370812,[],金融保险服务;银行;农村商业银行,"[{'title': [], 'url': 'http://store.is.autonavi.com/showpic/1d9147c7c7794b20aa4fdb36abca202a'}, {'title': [], 'url': 'http://store.is.autonavi.com/showpic/fa81c992124737370c069aba6d577d8a'}]",2022-07-01T20:08:10,116.795167,35.556635,116.78960453925596,35.55682994132174,金融保险服务,银行,农村商业银行
B0FFL6SJ39,鱼台农商银行24全程自助银行(张黄支行),清张路与武张线交口东100米,山东省,370000,济宁市,537,鱼台县,370827,[],金融保险服务;自动提款机;农村商业银行ATM,[],2022-07-01T20:07:15,116.585394,35.127548,116.58013089590558,35.12827440644854,金融保险服务,自动提款机,农村商业银行ATM
B0FFG7SPZZ,济宁银行(城后路),城后路28号,山东省,370000,济宁市,537,微山县,370826,[],金融保险服务;银行;银行,"[{'title': [], 'url': 'http://store.is.autonavi.com/showpic/9a42b4d8600b97da1fb77e20440f4d5e'}, {'title': [], 'url': 'http://store.is.autonavi.com/showpic/ae9bd2f0d71ab714e707bd9fc653daf2'}, {'title': [], 'url': 'http://store.is.autonavi.com/showpic/787ee997e43b26bf2d453d5da7bc7fdb'}]",2022-07-01T20:06:35,117.126952,34.813267,117.12103259763022,34.81398052256929,金融保险服务,银行,银行
B0G3LPDPCX,泗水农商银行(城关支行),连菏线壹公馆,山东省,370000,济宁市,537,泗水县,370831,[],金融保险服务;银行;农村商业银行,"[{'title': [], 'url': 'http://store.is.autonavi.com/showpic/53da2f9338de5b345c1ff12e601e4514'}, {'title': [], 'url': 'http://store.is.autonavi.com/showpic/47c7301528cd9ebcef91474a8d0afd60'}, {'title': [], 'url': 'http://store.is.autonavi.com/showpic/b07e451b4341ac7cd37cabd5e90f37ab'}]",2022-07-01T20:02:35,117.251915,35.655082,117.24604730063504,35.655176037284555,金融保险服务,银行,农村商业银行
B02190B8PB,济宁农商银行(洸河西路支行),洸河路,山东省,370000,济宁市,537,任城区,370811,0537-2211932,金融保险服务;银行;农村商业银行,"[{'title': [], 'url': 'http://store.is.autonavi.com/showpic/9f30545eab64a488220eae512e0ffda3'}]",2022-07-01T20:01:13,116.563413,35.419671,116.5580973475704,35.420091600942264,金融保险服务,银行,农村商业银行
B0FFGBPIUI,新湖财富,金宇路39号中信银行5层,山东省,370000,济宁市,537,任城区,370811,[],金融保险服务;金融保险服务机构;金融保险机构,[],2022-07-01T19:59:17,116.615783,35.430838,116.61047800941614,35.43126850440434,金融保险服务,金融保险服务机构,金融保险机构
B0FFKC53I5,儒风金融服务有限公司,五爱大道孔子国际商品交易城,山东省,370000,济宁市,537,曲阜市,370881,[],金融保险服务;金融保险服务机构;金融保险机构,[],2022-07-01T19:56:09,116.936708,35.588878,116.93121418656864,35.58917260873029,金融保险服务,金融保险服务机构,金融保险机构
B0FFHNDZRG,中国邮政24小时自助银行(金屯营业所),G105(京珠线),山东省,370000,济宁市,537,嘉祥县,370829,[],金融保险服务;自动提款机;自动提款机,[],2022-07-01T19:53:53,116.455349,35.267382,116.44971792413386,35.26766071972537,金融保险服务,自动提款机,自动提款机
B0FFFZJEFR,中国邮政储蓄银行(冯欢北路),欢城镇,山东省,370000,济宁市,537,微山县,370826,0537-8611032,金融保险服务;银行;中国邮政储蓄银行,"[{'title': [], 'url': 'http://store.is.autonavi.com/showpic/4eefab9879eefe8a32087c8ea2a6d58a'}, {'title': [], 'url': 'http://store.is.autonavi.com/showpic/62fca204f2e592b289d1c09741b67d65'}]",2022-07-01T19:53:23,117.085489,34.894351,117.07956727890536,34.89496421391167,金融保险服务,银行,中国邮政储蓄银行
B0I6SUOHEQ,中国建设银行(微山荷都支行),商业南街118号上峰,山东省,370000,济宁市,537,微山县,370826,[],金融保险服务;银行;中国建设银行,"[{'title': [], 'url': 'http://store.is.autonavi.com/showpic/c44a61ba3c774035d276bf15c2d7c6c7'}, {'title': [], 'url': 'http://store.is.autonavi.com/showpic/ee4c2388d584c308145406b53894ed80'}, {'title': [], 'url': 'http://store.is.autonavi.com/showpic/21e5ec12c7ba92ca725e1800ec0b6ca8'}]",2022-07-01T19:50:49,117.1378,34.798148,117.13189340367698,34.798891207917194,金融保险服务,银行,中国建设银行
B0HK5CKKFE,中路财险,京杭路新城发展大厦B座一层,山东省,370000,济宁市,537,任城区,370811,[],金融保险服务;金融保险服务机构;金融保险机构,[],2022-07-01T19:45:31,116.597245,35.360659,116.59196012095978,35.36115565338902,金融保险服务,金融保险服务机构,金融保险机构
B0HGUCF3H1,中国建设银行(邹城支行人民广场支行),岗山北路509号新华书店营业楼北端,山东省,370000,济宁市,537,邹城市,370883,[],金融保险服务;银行;银行,"[{'title': [], 'url': 'http://store.is.autonavi.com/showpic/703712863954b98449b25ff0d49dffb9'}]",2022-07-01T19:45:21,116.970951,35.405052,116.96536589293068,35.405402959803105,金融保险服务,银行,银行
B0FFFZD4RS,中国实业银行24小时自助银行(济宁国际商品城南),西外环路东,山东省,370000,济宁市,537,任城区,370811,[],金融保险服务;自动提款机;中国工商银行ATM,"[{'title': [], 'url': 'http://store.is.autonavi.com/showpic/0c7164c3ab89e2e56e31966476d15711'}, {'title': [], 'url': 'http://store.is.autonavi.com/showpic/487cdc8299a539489cf60e4897a3ea29'}]",2022-07-01T19:45:21,116.527284,35.39576,116.5218806815477,35.39612224944297,金融保险服务,自动提款机,中国工商银行ATM
B0GUU6WQXK,泰康人寿保险股份有限公司,水泊大街梁山伦达广场,山东省,370000,济宁市,537,梁山县,370832,[],金融保险服务;保险公司;泰康人寿保险公司,[],2022-07-01T19:45:04,116.079882,35.784984,116.07404324417408,35.784866400966976,金融保险服务,保险公司,泰康人寿保险公司
B0G0SS0592,齐鲁易货济宁运营中心,美恒济宁国际汽车博览城东区1号展厅,山东省,370000,济宁市,537,任城区,370811,13371234700,金融保险服务;金融保险服务机构;金融保险机构,"[{'title': [], 'url': 'http://store.is.autonavi.com/showpic/05958661aef7229c7fa77d465253c820'}, {'title': [], 'url': 'http://store.is.autonavi.com/showpic/5382deb29be256787fd836b3ba359539'}]",2022-07-01T19:40:59,116.532464,35.370186,116.52707931270854,35.370583852846885,金融保险服务,金融保险服务机构,金融保险机构
B0FFJ9A4EB,中国平安,红星路盛泰广场G座6楼东头,山东省,370000,济宁市,537,任城区,370811,[],金融保险服务;金融保险服务机构;金融保险机构,[],2022-07-01T19:37:28,116.623203,35.412415,116.61788983857312,35.41285380318269,金融保险服务,金融保险服务机构,金融保险机构
B02190YCJY,中国农业银行24小时自助银行(鲍店分理处),永安路附近,山东省,370000,济宁市,537,邹城市,370883,[],金融保险服务;自动提款机;中国农业银行ATM,"[{'title': [], 'url': 'http://store.is.autonavi.com/showpic/829f522dbf007d84813deacbeda02521'}]",2022-07-01T19:33:33,116.85241,35.427278,116.8469561876298,35.42766706447677,金融保险服务,自动提款机,中国农业银行ATM
B0FFGJZGOJ,富德永生人寿,[],山东省,370000,济宁市,537,兖州区,370812,[],金融保险服务;保险公司;保险公司,[],2022-07-01T19:33:20,116.795186,35.558198,116.78962340173854,35.55839198149468,金融保险服务,保险公司,保险公司
B0FFGA44IP,曲阜中银富登村镇银行(时庄支行),裕隆路129号,山东省,370000,济宁市,537,曲阜市,370881,0537-4695566,金融保险服务;银行;银行,"[{'title': [], 'url': 'http://store.is.autonavi.com/showpic/9267ef21c30b9e2563f2d6ec2831e6e8'}]",2022-07-01T18:58:09,116.941934,35.588953,116.93642664619674,35.58923890286826,金融保险服务,银行,银行
B0FFI87WG5,济宁儒商村镇银行(长沟支行),长沟镇华联超市东临,山东省,370000,济宁市,537,任城区,370811,[],金融保险服务;银行;银行,"[{'title': [], 'url': 'http://store.is.autonavi.com/showpic/4e385fdfc7010440dbbebffde35534ea'}]",2022-07-01T18:51:17,116.445609,35.492028,116.4399301297377,35.49209397213357,金融保险服务,银行,银行
B0FFH9DQ7W,中国平安保险(集团)股份有限公司,扬州北路永华·新百汇,山东省,370000,济宁市,537,兖州区,370812,0537-3126269;0537-3126268,金融保险服务;保险公司;中国平安保险公司,[],2022-07-01T18:42:29,116.795585,35.558632,116.79002288973442,35.55882629780246,金融保险服务,保险公司,中国平安保险公司
B0FFFGTM2O,交通银行24小时自助银行(平阳西路),平阳西路169附近,山东省,370000,济宁市,537,邹城市,370883,[],金融保险服务;自动提款机;交通银行ATM,"[{'title': [], 'url': 'http://store.is.autonavi.com/showpic/ed9adaf06dcfa1cc18a77450393abd93'}, {'title': [], 'url': 'http://store.is.autonavi.com/showpic/567a512ea3102e78f395c554'}, {'title': [], 'url': 'http://store.is.autonavi.com/showpic/0788490f7916cfc949154ed2f401386d'}]",2022-07-01T16:39:09,116.978787,35.400232,116.9731713728812,35.40056521023865,金融保险服务,自动提款机,交通银行ATM
B0FFFZ7YX2,中国邮政储蓄银行,兴隆庄镇,山东省,370000,济宁市,537,兖州区,370812,[],金融保险服务;银行;中国邮政储蓄银行,"[{'title': [], 'url': 'http://store.is.autonavi.com/showpic/cfe6e81f5a499cf7f524bf218deacb92'}]",2022-07-01T16:32:10,116.861371,35.487349,116.85592338523544,35.48770609013998,金融保险服务,银行,中国邮政储蓄银行
B0FFFPZTPL,交通银行24小时自助银行(济宁健康路支行),牌坊街附近,山东省,370000,济宁市,537,任城区,370811,[],金融保险服务;自动提款机;交通银行ATM,[],2022-07-01T16:08:15,116.5933,35.399655,116.58801162581685,35.40011767262733,金融保险服务,自动提款机,交通银行ATM
B0FFMCXUG1,中国民生银行(济宁冠亚星城社区支行),冠亚星城小区内a13号,山东省,370000,济宁市,537,任城区,370811,[],金融保险服务;银行;中国民生银行,[],2022-07-01T15:56:07,116.632614,35.422519,116.62728370065504,35.42293846476587,金融保险服务,银行,中国民生银行
B02190AVPI,中国邮政储蓄银行(柳行营业所),菱花路,山东省,370000,济宁市,537,任城区,370811,0537-2080699,金融保险服务;银行;中国邮政储蓄银行,"[{'title': [], 'url': 'http://store.is.autonavi.com/showpic/2aa9bfc50d5b2ae8f16b455488add74f'}, {'title': [], 'url': 'http://store.is.autonavi.com/showpic/5a91102fcd470b6480168ca668d209df'}, {'title': [], 'url': 'http://store.is.autonavi.com/showpic/b3fb4b4d0cb3a19c01c1da1b47124b93'}]",2022-07-01T15:55:44,116.656161,35.432716,116.65077652871302,35.43308947865837,金融保险服务,银行,中国邮政储蓄银行
B0FFFGTDOJ,恒丰银行(济宁分行),金宇路41-3号,山东省,370000,济宁市,537,任城区,370811,0537-3169088,金融保险服务;银行;银行,"[{'title': [], 'url': 'http://store.is.autonavi.com/showpic/c82eb27e5f475e6762914d9c62ac54c9'}, {'title': [], 'url': 'http://store.is.autonavi.com/showpic/5684e6cea310f9ed8809d81b'}, {'title': [], 'url': 'http://aos-cdn-image.amap.com/sns/ugccomment/573b59e2-1eaa-4739-891d-c5d083762037.jpg'}]",2022-07-01T15:10:09,116.614684,35.431649,116.60938019324874,35.432079664623046,金融保险服务,银行,银行
B0FFFGTQ59,中国邮政储蓄银行24不间断自助银行(济宁市车站支行),土门子南街20号临近,山东省,370000,济宁市,537,任城区,370811,[],金融保险服务;自动提款机;中国邮政储蓄银行ATM,"[{'title': [], 'url': 'http://store.is.autonavi.com/showpic/d58686f6301dacf426aaccfb646a3665'}, {'title': [], 'url': 'http://store.is.autonavi.com/showpic/5684e3a6a310f9ed88098562'}]",2022-07-01T15:08:10,116.597654,35.399185,116.59236517677544,35.399648461342395,金融保险服务,自动提款机,中国邮政储蓄银行ATM
B0H6753OTY,中国农业银行(安居办事处),安居街道八里庙大桥往西800米路北,山东省,370000,济宁市,537,任城区,370811,0537-2328901,金融保险服务;银行;中国农业银行,"[{'title': [], 'url': 'http://store.is.autonavi.com/showpic/a1ca854a70645708664016e1393e6c91'}, {'title': [], 'url': 'http://store.is.autonavi.com/showpic/38f715c9f60d9f294e2a3cb507df70ad'}, {'title': [], 'url': 'http://store.is.autonavi.com/showpic/7fcbb7969f373bee0b5a4c3bd38b9738'}]",2022-07-01T14:50:30,116.544922,35.375982,116.53957150085756,35.37640470010872,金融保险服务,银行,中国农业银行
B021908C92,中国工商银行(鱼台支行),鱼新一路佳客多对过,山东省,370000,济宁市,537,鱼台县,370827,0537-6211347,金融保险服务;银行;中国工商银行,"[{'title': [], 'url': 'http://store.is.autonavi.com/showpic/004758666d54918f816b63dd4c657540'}]",2022-07-01T14:12:23,116.649195,34.999179,116.64387122822475,35.00000086969294,金融保险服务,银行,中国工商银行
B0FFGTF9OS,中国邮政储蓄银行(嘉祥县火车站营业所),兖兰东路38号靠近,山东省,370000,济宁市,537,嘉祥县,370829,0537-6811169,金融保险服务;银行;中国邮政储蓄银行,"[{'title': [], 'url': 'http://store.is.autonavi.com/showpic/955ecbc273293f0909d7360428d22dc0'}]",2022-07-01T14:07:40,116.361972,35.396325,116.35628621415874,35.396456832080545,金融保险服务,银行,中国邮政储蓄银行
B0FFKG4MPN,中国建设银行(微山欢城支行),S322(冯驩西路),山东省,370000,济宁市,537,微山县,370826,[],金融保险服务;银行;中国建设银行,"[{'title': [], 'url': 'http://store.is.autonavi.com/showpic/11b1a20bb46fae0ff2c0a226c0231770'}]",2022-07-01T14:04:01,117.084243,34.894278,117.07832287680829,34.89489204545748,金融保险服务,银行,中国建设银行
B02190XRIG,中国工商银行(邹城电厂支行),长兴路居安家园,山东省,370000,济宁市,537,邹城市,370883,0537-5470094,金融保险服务;银行;中国工商银行,"[{'title': [], 'url': 'http://store.is.autonavi.com/showpic/759a5bbb3879acac1c8bf73a6a888c21'}, {'title': [], 'url': 'http://store.is.autonavi.com/showpic/cc5fbc8a7718291346298339d5271b2b'}, {'title': [], 'url': 'http://store.is.autonavi.com/showpic/7bfbd6d6606f0584e7ba73877d54b7da'}]",2022-07-01T13:51:13,116.946522,35.324846,116.94102895653748,35.32532484033988,金融保险服务,银行,中国工商银行
B0FFG4OJAP,中国邮政储蓄银行(曲阜有朋路营业所),逵泉东路386,山东省,370000,济宁市,537,曲阜市,370881,0537-4439099,金融保险服务;银行;中国邮政储蓄银行,"[{'title': [], 'url': 'http://store.is.autonavi.com/showpic/567a55caa3102e78f395f14e'}]",2022-07-01T13:49:25,117.013062,35.583203,117.0072821879186,35.58330216903412,金融保险服务,银行,中国邮政储蓄银行
B0GKYHI51B,威海市商业银行(济宁梁山支行),水泊新路46号和谐家园小区门市房,山东省,370000,济宁市,537,梁山县,370832,[],金融保险服务;银行;银行,"[{'title': [], 'url': 'http://store.is.autonavi.com/showpic/cd17f3cdaa99d142981d9df78b1f07c1'}]",2022-07-01T13:44:21,116.083457,35.790905,116.07761592437284,35.79078259129527,金融保险服务,银行,银行
B0FFLP7A93,中国农业银行(梁山城关支行),人民中路25号,山东省,370000,济宁市,537,梁山县,370832,0537-7322227,金融保险服务;银行;中国农业银行,"[{'title': [], 'url': 'http://store.is.autonavi.com/showpic/ba3a2a4848d1e0f3bb00b7cb64bcb35d'}, {'title': [], 'url': 'http://store.is.autonavi.com/showpic/4122db498f475f446fa45fb9eaa3b4d8'}, {'title': [], 'url': 'http://store.is.autonavi.com/showpic/c002668cde09b34ac9b175af4df6ace3'}]",2022-07-01T13:36:53,116.091176,35.804738,116.08533218493062,35.80460691763403,金融保险服务,银行,中国农业银行
B0FFK4HMTA,中国农牧业银行,水泊东路2号(壹号公馆楼下),山东省,370000,济宁市,537,梁山县,370832,0537-7330434,金融保险服务;银行;中国农业银行,"[{'title': [], 'url': 'http://store.is.autonavi.com/showpic/9867edd7832def1e2b07a5f9ab4e90b1'}]",2022-07-01T13:35:49,116.100366,35.819407,116.0945233265405,35.81926988035639,金融保险服务,银行,中国农业银行
B0FFGSJKKQ,中国建设银行24小时自助银行(满庄社区西南),优山美地北区(嘉祥石雕艺术公园西北),山东省,370000,济宁市,537,嘉祥县,370829,[],金融保险服务;自动提款机;中国建设银行ATM,"[{'title': [], 'url': 'http://store.is.autonavi.com/showpic/6ed3d01a125e98745a392a40679ad4e8'}, {'title': [], 'url': 'http://store.is.autonavi.com/showpic/503701bc10bb9037b7e72610de444a3e'}]",2022-07-01T13:31:59,116.357604,35.408878,116.35192443341538,35.409006037766765,金融保险服务,自动提款机,中国建设银行ATM
B02190A7O0,中国农牧业银行24小时自助银行(汶上圣泽分理处),中都街南段,山东省,370000,济宁市,537,汶上县,370830,[],金融保险服务;自动提款机;中国农业银行ATM,"[{'title': [], 'url': 'http://store.is.autonavi.com/showpic/70166b5986ce3af11e27ba0a67b9ed4a'}]",2022-07-01T13:26:55,116.492297,35.713388,116.48673926121144,35.71344573131165,金融保险服务,自动提款机,中国农业银行ATM
B0FFGGZXCB,日照银行24小时自助银行(济宁分行营业部),吴泰闸路阳光城市花园,山东省,370000,济宁市,537,任城区,370811,[],金融保险服务;自动提款机;自动提款机,"[{'title': [], 'url': 'http://store.is.autonavi.com/showpic/5684e75fa310f9ed8809e39a'}, {'title': [], 'url': 'http://store.is.autonavi.com/showpic/5684e75fa310f9ed8809e392'}, {'title': [], 'url': 'http://store.is.autonavi.com/showpic/5684e75fa310f9ed8809e396'}]",2022-07-01T13:26:02,116.615906,35.425388,116.61060141130416,35.42582278069484,金融保险服务,自动提款机,自动提款机
B0FFFZJPLM,中国建设银行(济宁任兴支行),任城大道与供销路交叉口翠都国际b座1层,山东省,370000,济宁市,537,任城区,370811,0537-2938200,金融保险服务;银行;中国建设银行,"[{'title': [], 'url': 'http://store.is.autonavi.com/showpic/ea8f69ecc4355f57ca4bef47e2347219'}, {'title': [], 'url': 'http://store.is.autonavi.com/showpic/612ea3ced20db6ea004f38efacf1b0dc'}]",2022-07-01T13:23:46,116.601694,35.440739,116.59639961910234,35.44116834171472,金融保险服务,银行,中国建设银行
B02190B72K,中国人寿,杨村卫生室东南侧,山东省,370000,济宁市,537,微山县,370826,[],金融保险服务;保险公司;中国人寿保险公司,[],2022-07-01T13:19:10,117.256403,34.65823,117.25063873247844,34.659260751380856,金融保险服务,保险公司,中国人寿保险公司
B0FFGGE238,中国农业银行24小时自助银行(安居分理处),鲁星大道北侧6号附近,山东省,370000,济宁市,537,任城区,370811,[],金融保险服务;自动提款机;中国农业银行ATM,"[{'title': [], 'url': 'http://store.is.autonavi.com/showpic/e4e048b43e5ae2fec71cdc11b991f128'}, {'title': [], 'url': 'http://store.is.autonavi.com/showpic/38f715c9f60d9f294e2a3cb507df70ad'}]",2022-07-01T13:17:36,116.545126,35.376037,116.53977601405144,35.376460102014306,金融保险服务,自动提款机,中国农业银行ATM
B0FFH7SROS,中国人寿,建设工程南路35号,山东省,370000,济宁市,537,嘉祥县,370829,0537-6780066,金融保险服务;保险公司;中国人寿保险公司,"[{'title': [], 'url': 'http://store.is.autonavi.com/showpic/3446a151c32d9d71f452ea77a3c2b9e0'}]",2022-07-01T13:14:40,116.337232,35.391839,116.33159471525374,35.392017093553775,金融保险服务,保险公司,中国人寿保险公司
B0FFG7IMBO,邹城农村商业银行(看庄支行),环圣路与工农路交叉路口西南侧,山东省,370000,济宁市,537,邹城市,370883,0537-5690027,金融保险服务;银行;农村商业银行,"[{'title': [], 'url': 'http://store.is.autonavi.com/showpic/38ded58f32ff58fc4615cda9b2b74084'}]",2022-07-01T12:59:01,117.035454,35.2563,117.02962042505384,35.25660082472807,金融保险服务,银行,农村商业银行
B0FFFGTQW4,合营银行24小时自助银行(亿丰时代广场C区东),金宇西路46号亿丰早期广场满意家园南F1,山东省,370000,济宁市,537,任城区,370811,[],金融保险服务;自动提款机;兴业银行ATM,"[{'title': [], 'url': 'http://store.is.autonavi.com/showpic/5684e66ca310f9ed8809cb39'}, {'title': [], 'url': 'http://store.is.autonavi.com/showpic/5721691fc431adc25503f3f6e4ffd3ee'}]",2022-07-01T12:55:10,116.56876,35.431223,116.5634513385194,35.43164176181392,金融保险服务,自动提款机,兴业银行ATM
B02190AEEF,中国银行(济东支行),济东物业服务中心济东新村,山东省,370000,济宁市,537,任城区,370811,0537-2616906,金融保险服务;银行;中国银行,"[{'title': [], 'url': 'http://store.is.autonavi.com/showpic/a15870c68d958735c09c3bbc39d638d2'}, {'title': [], 'url': 'http://store.is.autonavi.com/showpic/22dec1e03005fdcfc52b6a9f96c9491e'}, {'title': [], 'url': 'http://store.is.autonavi.com/showpic/7f9b5472ead1b7ba8a28738f25fa3a78'}]",2022-07-01T12:49:43,116.690627,35.348204,116.68516058455756,35.34858447390096,金融保险服务,银行,中国银行
B02190ADOU,济宁银行(任城支行),运河路22-10号,山东省,370000,济宁市,537,任城区,370811,0537-2328922;0537-2310706,金融保险服务;银行;银行,"[{'title': [], 'url': 'http://store.is.autonavi.com/showpic/87a57c9d2b6eaef46301876700c65545'}]",2022-07-01T12:48:49,116.589144,35.403804,116.58385469571822,35.40426204380185,金融保险服务,银行,银行
B0FFK7I983,中国建设银行(济州支行),金宇西路华仁尚品商务楼1层,山东省,370000,济宁市,537,任城区,370811,0537-2239013,金融保险服务;银行;中国建设银行,"[{'title': [], 'url': 'http://store.is.autonavi.com/showpic/e6352efb271e1cf60db277e27176fa26'}]",2022-07-01T12:38:56,116.569778,35.431529,116.5644706857658,35.431948799945594,金融保险服务,银行,中国建设银行
B02190BB3J,中国邮政储蓄银行(湖凌支行),孝贤大道中段路东邮政储蓄银行,山东省,370000,济宁市,537,鱼台县,370827,[],金融保险服务;银行;中国邮政储蓄银行,"[{'title': [], 'url': 'http://store.is.autonavi.com/showpic/87f0b0a999dc98e6de7d881dae458247'}, {'title': [], 'url': 'http://store.is.autonavi.com/showpic/b446e26ecbfb61e0020c1547c72e7ee7'}]",2022-07-01T12:27:09,116.651684,34.996808,116.64635446050316,34.997628203924684,金融保险服务,银行,中国邮政储蓄银行
B0FFGYRRP6,中国人寿,古槐路48号鲁兴生活区,山东省,370000,济宁市,537,任城区,370811,[],金融保险服务;保险公司;中国人寿保险公司,"[{'title': [], 'url': 'http://store.is.autonavi.com/showpic/03eec4c368425f4c3e02aa5bb5cbda0b'}, {'title': [], 'url': 'http://store.is.autonavi.com/showpic/570786ed0f3a7a98515d929b0b09bab7'}]",2022-07-01T12:15:49,116.582044,35.410401,116.5767509005398,35.41084979306892,金融保险服务,保险公司,中国人寿保险公司
B0FFKG8WY7,中国农业银行24小时自助银行(洸河支行),供销路翠都国际-二期,山东省,370000,济宁市,537,任城区,370811,[],金融保险服务;自动提款机;中国农业银行ATM,"[{'title': [], 'url': 'http://store.is.autonavi.com/showpic/abf31ec99c94376df3341bc5a9d86b92'}, {'title': [], 'url': 'http://store.is.autonavi.com/showpic/3da5ba47b3fcc6d3770729a694c9e07a'}]",2022-07-01T12:03:46,116.602621,35.439162,116.59732633208672,35.43959239590823,金融保险服务,自动提款机,中国农业银行ATM
B0FFHEZE70,交通银行(济宁金城支行),济安桥北路147号,山东省,370000,济宁市,537,任城区,370811,0537-2278764,金融保险服务;银行;交通银行,"[{'title': [], 'url': 'http://store.is.autonavi.com/showpic/a3842e3f10a2b6675dc1c6a92a3b3d29'}, {'title': [], 'url': 'http://store.is.autonavi.com/showpic/b5687220f30f374b9f1662f54b978856'}]",2022-07-01T12:00:52,116.565293,35.408361,116.55998152191428,35.40879363127808,金融保险服务,银行,交通银行
B0FFIHKY1Y,聊城农商银行(南苑支行),柳行路与狄园街交错路口南10米路东,山东省,370000,济宁市,537,任城区,370811,[],金融保险服务;银行;农村商业银行,"[{'title': [], 'url': 'http://store.is.autonavi.com/showpic/314a03b16851a49294c79eb982b48d58'}]",2022-07-01T11:52:30,116.576637,35.39463,116.57134118356448,35.395087539884095,金融保险服务,银行,农村商业银行
B0FFG2PZEV,中国邮政储蓄银行(齐鲁时代花园北),崇义路1670号星凯家居生活广场0012幢103号,山东省,370000,济宁市,537,邹城市,370883,0537-5237750,金融保险服务;银行;中国邮政储蓄银行,"[{'title': [], 'url': 'http://aos-cdn-image.amap.com/sns/ugccomment/88dde734-694d-45ec-865a-5a04a2c51b62.jpg'}, {'title': [], 'url': 'http://aos-cdn-image.amap.com/sns/ugccomment/6b92a7da-6b2d-41c1-a063-88868a2e8fa1.jpg'}]",2022-07-01T11:51:22,117.011527,35.41602,117.00577149392907,35.41624218347443,金融保险服务,银行,中国邮政储蓄银行
B0FFGDD7OI,中国银行(梁山支行),水泊大街东方东升花园小区临街楼10-1-109号,山东省,370000,济宁市,537,梁山县,370832,0537-7322247,金融保险服务;银行;中国银行,"[{'title': [], 'url': 'http://store.is.autonavi.com/showpic/ca9659e225e342d5a3a8ad424d2ca0c7'}, {'title': [], 'url': 'http://store.is.autonavi.com/showpic/2957689cc7b20ee698142abf60685d3c'}, {'title': [], 'url': 'http://store.is.autonavi.com/showpic/c015ddb149b79248164499692b5e8e73'}]",2022-07-01T11:42:47,116.085111,35.796755,116.07926875276216,35.79662947054205,金融保险服务,银行,中国银行
B0FFH1QV0N,中国农业银行(微山夏镇分理处),镇中街夏阳花苑门北50米,山东省,370000,济宁市,537,微山县,370826,0537-8221493,金融保险服务;银行;中国农业银行,"[{'title': [], 'url': 'http://store.is.autonavi.com/showpic/a36423cced3ce0daca0defe862cc956a'}]",2022-07-01T11:36:01,117.12799,34.820767,117.12207068015276,34.82147379016146,金融保险服务,银行,中国农业银行
B0FFHVLZLU,中国太平,环城西路华信小区西侧约70米,山东省,370000,济宁市,537,任城区,370811,0537-2076930,金融保险服务;保险公司;保险公司,"[{'title': [], 'url': 'http://store.is.autonavi.com/showpic/05d8c243cdac06a2811d4c62c75321c4'}]",2022-07-01T11:29:44,116.573909,35.418761,116.56860797595589,35.41919582417539,金融保险服务,保险公司,保险公司
B0FFHLQMNR,交通银行24小时自助银行(金城支行),济安桥北路147号,山东省,370000,济宁市,537,任城区,370811,[],金融保险服务;自动提款机;交通银行ATM,"[{'title': [], 'url': 'http://store.is.autonavi.com/showpic/6cd3cafc1352dd6d06646cb921ed9656'}]",2022-07-01T11:18:59,116.56458,35.407894,116.55926743829008,35.40832598767622,金融保险服务,自动提款机,交通银行ATM
B0FFFEARQL,中国工商银行24小时自助银行(迎凤路),迎凤路31附近,山东省,370000,济宁市,537,嘉祥县,370829,[],金融保险服务;自动提款机;中国工商银行ATM,"[{'title': [], 'url': 'http://store.is.autonavi.com/showpic/713dad17f2a7baaf7c8569a518e7fa46'}]",2022-07-01T11:14:30,116.346974,35.407092,116.34131488719734,35.40723942400054,金融保险服务,自动提款机,中国工商银行ATM
B0FFGAFXHH,中国人民保险集团股份有限公司,光明路金域中央,山东省,370000,济宁市,537,泗水县,370831,[],金融保险服务;保险公司;中国人民保险公司,"[{'title': [], 'url': 'http://store.is.autonavi.com/showpic/a2ef3c5014429db84c13cb37a35c09b9'}, {'title': [], 'url': 'http://store.is.autonavi.com/showpic/567a5e93a3102e78f3974533'}]",2022-07-01T11:10:36,117.276106,35.651422,117.2702130124225,35.651504870178385,金融保险服务,保险公司,中国人民保险公司
B0GUS6KMRV,中国大地财产保险股份有限公司兖州支公司,建设中路与徐州北路交叉路口往西约50米(百意财富广场购物中心)太阳财富广场F1,山东省,370000,济宁市,537,兖州区,370812,[],金融保险服务;保险公司;保险公司,[],2022-07-01T11:04:13,116.780356,35.556138,116.77477732176064,35.55631431891776,金融保险服务,保险公司,保险公司
B0FFFGTK24,威海市商业银行(济宁分行),高新区琵琶山北路9-1号,山东省,370000,济宁市,537,任城区,370811,0537-3317013,金融保险服务;银行;银行,"[{'title': [], 'url': 'http://store.is.autonavi.com/showpic/f3295769689aa9522e146f243421f7da'}, {'title': [], 'url': 'http://store.is.autonavi.com/showpic/2f2e8522a47eeb54fc8a187068eed837'}]",2022-07-01T11:03:53,116.607517,35.428705,116.60222027051748,35.42914211408548,金融保险服务,银行,银行
B02190BG8E,中国农业银行(邹城农坛分理处),太平东路458号农业局一楼,山东省,370000,济宁市,537,邹城市,370883,0537-5216913,金融保险服务;银行;中国农业银行,"[{'title': [], 'url': 'http://store.is.autonavi.com/showpic/36520f1beca689d852dd4934d2b2af74'}, {'title': [], 'url': 'http://store.is.autonavi.com/showpic/2170e08b790c7fe6a3e908c16813a1de'}]",2022-07-01T10:59:49,116.986298,35.403873,116.98065103226922,35.404181305775204,金融保险服务,银行,中国农业银行
B0FFFEILG6,兴业银行(济宁高新支行),济宁高新区英萃路39号,山东省,370000,济宁市,537,任城区,370811,0537-2716221;0537-2716203;0537-2716210,金融保险服务;银行;兴业银行,"[{'title': [], 'url': 'http://store.is.autonavi.com/showpic/bb9ab8a2d7d96251b6075b34126d7f09'}, {'title': [], 'url': 'http://store.is.autonavi.com/showpic/568100daa3104d32a8254362'}]",2022-07-01T10:57:12,116.625987,35.424705,116.62066821077804,35.42513081427366,金融保险服务,银行,兴业银行
B0FFFGTFMD,中国民生银行(济宁邹城支行),矿建东路1369号民生服务大厅西楼凫山街道办事处西楼,山东省,370000,济宁市,537,邹城市,370883,0537-3133988;0537-3133299,金融保险服务;银行;中国民生银行,"[{'title': [], 'url': 'http://store.is.autonavi.com/showpic/c379cf80e61f5ded75563fd3a08cab3f'}, {'title': [], 'url': 'http://store.is.autonavi.com/showpic/917e811d3e84ad273c345584b4766a99'}, {'title': [], 'url': 'http://store.is.autonavi.com/showpic/567a3f77a3102e78f3951156'}]",2022-07-01T10:54:53,116.940308,35.40244,116.93482426478076,35.4028617912215,金融保险服务,银行,中国民生银行
B0FFFGTNH8,中国工商银行(兖州建设路支行),建设东路210号,山东省,370000,济宁市,537,兖州区,370812,0537-3414914;0537-3418920,金融保险服务;银行;中国工商银行,"[{'title': [], 'url': 'http://store.is.autonavi.com/showpic/7e766b13a087c159a10e5ebc46d01e70'}, {'title': [], 'url': 'http://store.is.autonavi.com/showpic/67c950feda80cb67dff44f858fb9d8d0'}, {'title': [], 'url': 'http://store.is.autonavi.com/showpic/567a3e10a3102e78f3950249'}]",2022-07-01T10:54:05,116.830379,35.555235,116.82487491897344,35.55549246949298,金融保险服务,银行,中国工商银行
B0G35UVOYH,中国工商银行(金乡支行春秋路分理处),春秋路8-5正西方向50米,山东省,370000,济宁市,537,金乡县,370828,0537-8722064,金融保险服务;银行;中国工商银行,"[{'title': [], 'url': 'http://store.is.autonavi.com/showpic/6dcbe145a19e04e5c896ee1d3c550061'}]",2022-07-01T10:52:04,116.329923,35.069928,116.32433462190376,35.07044334928164,金融保险服务,银行,中国工商银行
B0FFFZD73B,泰山私有财产保险股份有限公司(嘉祥支公司),S338省道南峨眉路东祥炬嘉园12幢1单元1-107号,山东省,370000,济宁市,537,嘉祥县,370829,[],金融保险服务;保险公司;保险公司,"[{'title': [], 'url': 'http://store.is.autonavi.com/showpic/05e65a162ad6775bf3299025c62507cc'}, {'title': [], 'url': 'http://store.is.autonavi.com/showpic/bd36a8a979ad6e40f65e12c1947119cf'}, {'title': [], 'url': 'http://store.is.autonavi.com/showpic/39acaa42e0879b32e185a9fb0a106ca6'}]",2022-07-01T10:47:35,116.375222,35.419045,116.3695147175463,35.4191410092345,金融保险服务,保险公司,保险公司
B0FFHZ7YO9,中国建设银行24全程自助银行(车站东路),车站东路35-1号西南方,山东省,370000,济宁市,537,任城区,370811,[],金融保险服务;自动提款机;中国建设银行ATM,"[{'title': [], 'url': 'http://store.is.autonavi.com/showpic/5e324620aba460fbc6d75e2367083099'}]",2022-07-01T10:37:38,116.600426,35.398226,116.59513641192318,35.398690082862736,金融保险服务,自动提款机,中国建设银行ATM
B0FFFRK69T,中国银行(泉兴支行),平阳东路1888号新一中南门对过,山东省,370000,济宁市,537,邹城市,370883,0537-5214750,金融保险服务;银行;中国银行,"[{'title': [], 'url': 'http://store.is.autonavi.com/showpic/37e3cc943cd8dc625871fcecc45b9cd0'}]",2022-07-01T10:34:38,117.001642,35.400361,116.99593018946705,35.400625965110706,金融保险服务,银行,中国银行
B0HBLA9DN8,平安银行(济宁邹城支行),接驾山路1067号(程兰路交汇处),山东省,370000,济宁市,537,邹城市,370883,0537-5192066,金融保险服务;银行;平安银行,"[{'title': [], 'url': 'http://store.is.autonavi.com/showpic/e81bbe32ed493eeb83dcc4bff2b71c6d'}, {'title': [], 'url': 'http://store.is.autonavi.com/showpic/ce3570efe5e7af130822978578164ef8'}, {'title': [], 'url': 'http://aos-cdn-image.amap.com/sns/ugccomment/d10e5cd6-8ff3-430d-a4f7-148f89d58235.jpg'}]",2022-07-01T10:34:03,117.016202,35.414478,117.01042711614885,35.41468761465255,金融保险服务,银行,平安银行
B0FFICT5W2,大童保险服务,商业南街新媒体大厦南侧约260米,山东省,370000,济宁市,537,微山县,370826,0537-8580088,金融保险服务;保险公司;保险公司,"[{'title': [], 'url': 'http://store.is.autonavi.com/showpic/3f3bd07c254f726aa340f141908cc0ab'}, {'title': [], 'url': 'http://store.is.autonavi.com/showpic/dfd5da940aef3fde686032b713bc45a0'}]",2022-07-01T10:22:51,117.137046,34.799579,117.13113834061237,34.80031964689737,金融保险服务,保险公司,保险公司
B0FFLJKWT0,中国银行保险公司监督管理委员会济宁监管分局,艳阳天中路20号,山东省,370000,济宁市,537,任城区,370811,[],金融保险服务;金融保险服务机构;金融保险机构,[],2022-07-01T10:19:34,116.587919,35.413314,116.582628406215,35.413763693280856,金融保险服务,金融保险服务机构,金融保险机构
B02190BGEW,中国工商银行(济宁东城支行),洸河路16号鲁南质检中心1楼,山东省,370000,济宁市,537,任城区,370811,0537-3163195,金融保险服务;银行;中国工商银行,"[{'title': [], 'url': 'http://store.is.autonavi.com/showpic/05ea595ffc923e0d54cb6b9204be034e'}, {'title': [], 'url': 'http://aos-cdn-image.amap.com/sns/ugccomment/1718a3d1-4533-415d-8096-a6a2cf6d32b2.jpg'}]",2022-07-01T10:15:13,116.62797,35.420061,116.62264835078248,35.42048828763515,金融保险服务,银行,中国工商银行
B02190AQJM,济宁银行(梁山水泊支行),水泊中路117号,山东省,370000,济宁市,537,梁山县,370832,0537-7305966,金融保险服务;银行;银行,"[{'title': [], 'url': 'http://store.is.autonavi.com/showpic/a9500f2840c00d041bb101c7a5d3c58d'}, {'title': [], 'url': 'http://store.is.autonavi.com/showpic/288972dd13d40176bea6687e75cc8833'}, {'title': [], 'url': 'http://store.is.autonavi.com/showpic/94bf35dfa97c015c58d7170ce14f13f8'}]",2022-07-01T10:09:51,116.087691,35.797896,116.0818480829589,35.797768689521945,金融保险服务,银行,银行
B0FFIB0PXI,中国工商银行(铁东分理处),岗山中路1236号,山东省,370000,济宁市,537,邹城市,370883,[],金融保险服务;银行;中国工商银行,"[{'title': [], 'url': 'http://store.is.autonavi.com/showpic/51849cb849e62c95555e3b7cf70b49ab'}, {'title': [], 'url': 'http://store.is.autonavi.com/showpic/0be6025e60dc25e1fa4cbd31e7766c81'}, {'title': [], 'url': 'http://store.is.autonavi.com/showpic/63ba0bb7304851da6f1c62a031ce725f'}]",2022-07-01T10:06:46,116.96973,35.397618,116.9641503552902,35.39797844629616,金融保险服务,银行,中国工商银行
B0FFFE7E60,永康保险泗水支公司,永康路13号附近,山东省,370000,济宁市,537,泗水县,370831,[],金融保险服务;保险公司;保险公司,"[{'title': [], 'url': 'http://store.is.autonavi.com/showpic/567a5ec5a3102e78f39752ff'}]",2022-07-01T09:54:18,117.264641,35.658005,117.25876262528996,35.65809334981799,金融保险服务,保险公司,保险公司
B0FFI8QRBB,中国邮政储蓄银行(嘉祥演武营业所),演武路,山东省,370000,济宁市,537,嘉祥县,370829,0537-6810111,金融保险服务;银行;中国邮政储蓄银行,"[{'title': [], 'url': 'http://store.is.autonavi.com/showpic/5117849f31e09b96d67d0a2c4e6ee486'}, {'title': [], 'url': 'http://store.is.autonavi.com/showpic/78b32943e0bf388b3c24077e3cfefb46'}, {'title': [], 'url': 'http://store.is.autonavi.com/showpic/9bf24d514a55f4a93a6fd221c5c5c0a7'}]",2022-07-01T09:44:35,116.341705,35.400993,116.33605733022956,35.40115504774607,金融保险服务,银行,中国邮政储蓄银行
